{"type":"FeatureCollection","features":[{"type":"Feature","id":1,"geometry":{"type":"Point","coordinates":[-117.37604976261284,46.868930313854491]},"properties":{"OBJECTID":1,"ID":"0001699111","NAME":"WHITMAN HOSPITAL AND MEDICAL CENTER","ADDRESS":"1200 WEST FAIRVIEW ROAD","CITY":"COLFAX","STATE":"WA","ZIP":"99111","ZIP4":"NOT AVAILABLE","TELEPHONE":"(509) 397-3435","TYPE":"CRITICAL ACCESS","STATUS":"OPEN","POPULATION":25,"COUNTY":"WHITMAN","COUNTYFIPS":"53075","COUNTRY":"USA","LATITUDE":46.868930314000004,"LONGITUDE":-117.376049763,"NAICS_CODE":"622110","NAICS_DESC":"GENERAL MEDICAL AND SURGICAL HOSPITALS","SOURCE":"https://fortress.wa.gov/doh/facilitysearch/Default.aspx","SOURCEDATE":1533859200000,"VAL_METHOD":"IMAGERY","VAL_DATE":1391990400000,"WEBSITE":"www.whitmanhospital.com","STATE_ID":"153","ALT_NAME":"PULLMAN MEMORIAL HOSPITAL","ST_FIPS":"53","OWNER":"GOVERNMENT - DISTRICT/AUTHORITY","TTL_STAFF":-999,"BEDS":25,"TRAUMA":"LEVEL V","HELIPAD":"Y"}},{"type":"Feature","id":2,"geometry":{"type":"Point","coordinates":[-117.16980596885855,46.712388236193298]},"properties":{"OBJECTID":2,"ID":"0003399163","NAME":"PULLMAN REGIONAL HOSPITAL","ADDRESS":"835 SOUTHEAST BISHOP BOULEVARD","CITY":"PULLMAN","STATE":"WA","ZIP":"99163","ZIP4":"NOT AVAILABLE","TELEPHONE":"(509) 332-2541","TYPE":"CRITICAL ACCESS","STATUS":"OPEN","POPULATION":25,"COUNTY":"WHITMAN","COUNTYFIPS":"53075","COUNTRY":"USA","LATITUDE":46.712388236000002,"LONGITUDE":-117.169805969,"NAICS_CODE":"622110","NAICS_DESC":"GENERAL MEDICAL AND SURGICAL HOSPITALS","SOURCE":"https://fortress.wa.gov/doh/facilitysearch/Default.aspx","SOURCEDATE":1533859200000,"VAL_METHOD":"IMAGERY/OTHER","VAL_DATE":1391990400000,"WEBSITE":"www.pullmanhospital.org","STATE_ID":"172","ALT_NAME":"WHITMAN HOSPITAL AND MEDICAL CENTER","ST_FIPS":"53","OWNER":"GOVERNMENT - DISTRICT/AUTHORITY","TTL_STAFF":-999,"BEDS":25,"TRAUMA":"LEVEL IV","HELIPAD":"Y"}},{"type":"Feature","id":3,"geometry":{"type":"Point","coordinates":[-117.64527527277671,47.639416044020933]},"properties":{"OBJECTID":3,"ID":"0000498438","NAME":"US AIR FORCE HOSPITAL 92ND MEDICAL GROUP","ADDRESS":"701 HOSPITAL LOOP","CITY":"FAIRCHILD AIR FORCE","STATE":"WA","ZIP":"98438","ZIP4":"NOT AVAILABLE","TELEPHONE":"(509) 247-2361","TYPE":"MILITARY","STATUS":"OPEN","POPULATION":48,"COUNTY":"SPOKANE","COUNTYFIPS":"53063","COUNTRY":"USA","LATITUDE":47.639416044000001,"LONGITUDE":-117.645275273,"NAICS_CODE":"622110","NAICS_DESC":"GENERAL MEDICAL AND SURGICAL HOSPITALS","SOURCE":"https://fortress.wa.gov/doh/facilitysearch/Default.aspx","SOURCEDATE":1533859200000,"VAL_METHOD":"IMAGERY","VAL_DATE":1392163200000,"WEBSITE":"NOT AVAILABLE","STATE_ID":"NOT AVAILABLE","ALT_NAME":"NOT AVAILABLE","ST_FIPS":"53","OWNER":"GOVERNMENT - FEDERAL","TTL_STAFF":-999,"BEDS":48,"TRAUMA":"NOT AVAILABLE","HELIPAD":"N"}},{"type":"Feature","id":4,"geometry":{"type":"Point","coordinates":[-117.42343611393738,47.651800240143814]},"properties":{"OBJECTID":4,"ID":"0003599210","NAME":"DEACONESS MEDICAL CENTER","ADDRESS":"800 WEST FIFTH AVENUE","CITY":"SPOKANE","STATE":"WA","ZIP":"99210","ZIP4":"NOT AVAILABLE","TELEPHONE":"(509) 458-5800","TYPE":"GENERAL ACUTE CARE","STATUS":"OPEN","POPULATION":307,"COUNTY":"SPOKANE","COUNTYFIPS":"53063","COUNTRY":"USA","LATITUDE":47.65180024,"LONGITUDE":-117.423436114,"NAICS_CODE":"622110","NAICS_DESC":"GENERAL MEDICAL AND SURGICAL HOSPITALS","SOURCE":"https://fortress.wa.gov/doh/facilitysearch/Default.aspx","SOURCEDATE":1533859200000,"VAL_METHOD":"IMAGERY","VAL_DATE":1391990400000,"WEBSITE":"www.deaconessspokane.com/","STATE_ID":"60054542","ALT_NAME":"SHRINERS HOSPITAL FOR CRIPPLED CHILDREN-SPOKANE UNIT","ST_FIPS":"53","OWNER":"NON-PROFIT","TTL_STAFF":-999,"BEDS":307,"TRAUMA":"LEVEL III","HELIPAD":"Y"}},{"type":"Feature","id":5,"geometry":{"type":"Point","coordinates":[-117.23547093056389,47.670764315865348]},"properties":{"OBJECTID":5,"ID":"0003999216","NAME":"VALLEY HOSPITAL AND MEDICAL CENTER","ADDRESS":"12606 MISSION AVE E","CITY":"SPOKANE","STATE":"WA","ZIP":"99216","ZIP4":"NOT AVAILABLE","TELEPHONE":"(509) 924-6650","TYPE":"GENERAL ACUTE CARE","STATUS":"OPEN","POPULATION":123,"COUNTY":"SPOKANE","COUNTYFIPS":"53063","COUNTRY":"USA","LATITUDE":47.670764316000003,"LONGITUDE":-117.23547093099999,"NAICS_CODE":"622110","NAICS_DESC":"GENERAL MEDICAL AND SURGICAL HOSPITALS","SOURCE":"https://fortress.wa.gov/doh/facilitysearch/Default.aspx","SOURCEDATE":1533859200000,"VAL_METHOD":"IMAGERY","VAL_DATE":1391990400000,"WEBSITE":"www.spokanevalleyhospital.com","STATE_ID":"60054580","ALT_NAME":"SAINT LUKE'S REHABILITATION INSTITUTE","ST_FIPS":"53","OWNER":"PROPRIETARY","TTL_STAFF":-999,"BEDS":123,"TRAUMA":"LEVEL III","HELIPAD":"Y"}},{"type":"Feature","id":6,"geometry":{"type":"Point","coordinates":[-117.89274846820442,48.540671793154509]},"properties":{"OBJECTID":6,"ID":"0008199114","NAME":"PROVIDENCE MOUNT CARMEL HOSPITAL","ADDRESS":"982 E COLUMBIA AVE","CITY":"COLVILLE","STATE":"WA","ZIP":"99114","ZIP4":"NOT AVAILABLE","TELEPHONE":"(509) 684-2561","TYPE":"CRITICAL ACCESS","STATUS":"OPEN","POPULATION":25,"COUNTY":"STEVENS","COUNTYFIPS":"53065","COUNTRY":"USA","LATITUDE":48.540671793000001,"LONGITUDE":-117.89274846799999,"NAICS_CODE":"622110","NAICS_DESC":"GENERAL MEDICAL AND SURGICAL HOSPITALS","SOURCE":"https://fortress.wa.gov/doh/facilitysearch/Default.aspx","SOURCEDATE":1533859200000,"VAL_METHOD":"IMAGERY","VAL_DATE":1391990400000,"WEBSITE":"http://www.providence.org","STATE_ID":"30","ALT_NAME":"SAINT JOSEPH'S HOSPITAL","ST_FIPS":"53","OWNER":"NON-PROFIT","TTL_STAFF":-999,"BEDS":25,"TRAUMA":"LEVEL IV","HELIPAD":"Y"}},{"type":"Feature","id":7,"geometry":{"type":"Point","coordinates":[-117.4135953906984,47.649212995096995]},"properties":{"OBJECTID":7,"ID":"0015399204","NAME":"PROVIDENCE SACRED HEART MEDICAL CENTER AND CHILDREN'S HOSPITAL","ADDRESS":"101 W 8TH AVE","CITY":"SPOKANE","STATE":"WA","ZIP":"99204","ZIP4":"2307","TELEPHONE":"(509) 474-3131","TYPE":"GENERAL ACUTE CARE","STATUS":"OPEN","POPULATION":638,"COUNTY":"SPOKANE","COUNTYFIPS":"53063","COUNTRY":"USA","LATITUDE":47.649212994999999,"LONGITUDE":-117.413595391,"NAICS_CODE":"622110","NAICS_DESC":"GENERAL MEDICAL AND SURGICAL HOSPITALS","SOURCE":"https://fortress.wa.gov/doh/facilitysearch/Default.aspx","SOURCEDATE":1533859200000,"VAL_METHOD":"IMAGERY/OTHER","VAL_DATE":1490572800000,"WEBSITE":"http://washington.providence.org/hospitals/sacred-heart-medical-center-and-childrens-hospital/","STATE_ID":"162","ALT_NAME":"NOT AVAILABLE","ST_FIPS":"53","OWNER":"NON-PROFIT","TTL_STAFF":-999,"BEDS":638,"TRAUMA":"LEVEL II PEDIATRIC","HELIPAD":"Y"}},{"type":"Feature","id":8,"geometry":{"type":"Point","coordinates":[-110.94709822681186,41.263828716817692]},"properties":{"OBJECTID":8,"ID":"0004382931","NAME":"WYOMING STATE HOSPITAL","ADDRESS":"831 HIGHWAY 150 SOUTH","CITY":"EVANSTON","STATE":"WY","ZIP":"82931","ZIP4":"NOT AVAILABLE","TELEPHONE":"(307) 789-3464","TYPE":"PSYCHIATRIC","STATUS":"OPEN","POPULATION":183,"COUNTY":"UINTA","COUNTYFIPS":"56041","COUNTRY":"USA","LATITUDE":41.263828717000003,"LONGITUDE":-110.947098227,"NAICS_CODE":"622210","NAICS_DESC":"PSYCHIATRIC AND SUBSTANCE ABUSE HOSPITALS","SOURCE":"https://health.wyo.gov/aging/hls/healthcare-facility-directory/","SOURCEDATE":1534118400000,"VAL_METHOD":"IMAGERY","VAL_DATE":1391990400000,"WEBSITE":"http://www.health.wyo.gov/statehospital/index.html","STATE_ID":"15163","ALT_NAME":"NOT AVAILABLE","ST_FIPS":"56","OWNER":"GOVERNMENT - STATE","TTL_STAFF":-999,"BEDS":183,"TRAUMA":"NOT AVAILABLE","HELIPAD":"N"}},{"type":"Feature","id":9,"geometry":{"type":"Point","coordinates":[-114.17208713703504,46.248138584268965]},"properties":{"OBJECTID":9,"ID":"0000759840","NAME":"MARCUS DALY MEMORIAL HOSPITAL","ADDRESS":"1200 WESTWOOD DR","CITY":"HAMILTON","STATE":"MT","ZIP":"59840","ZIP4":"NOT AVAILABLE","TELEPHONE":"(406) 363-2211","TYPE":"CRITICAL ACCESS","STATUS":"OPEN","POPULATION":37,"COUNTY":"RAVALLI","COUNTYFIPS":"30081","COUNTRY":"USA","LATITUDE":46.248138584000003,"LONGITUDE":-114.17208713700001,"NAICS_CODE":"622110","NAICS_DESC":"GENERAL MEDICAL AND SURGICAL HOSPITALS","SOURCE":"http://dphhs.mt.gov/qad/healthcarefacilitieslist","SOURCEDATE":1533772800000,"VAL_METHOD":"IMAGERY/OTHER","VAL_DATE":1391990400000,"WEBSITE":"http://www.mdmh.org","STATE_ID":"NOT AVAILABLE","ALT_NAME":"NOT AVAILABLE","ST_FIPS":"30","OWNER":"NON-PROFIT","TTL_STAFF":-999,"BEDS":37,"TRAUMA":"NOT AVAILABLE","HELIPAD":"N"}},{"type":"Feature","id":10,"geometry":{"type":"Point","coordinates":[-110.74957794044229,43.480281847028472]},"properties":{"OBJECTID":10,"ID":"0003783001","NAME":"TETON COUNTY HOSPITAL DISTRICT","ADDRESS":"625 EAST BROADWAY","CITY":"JACKSON","STATE":"WY","ZIP":"83001","ZIP4":"NOT AVAILABLE","TELEPHONE":"(307) 733-3636","TYPE":"GENERAL ACUTE CARE","STATUS":"OPEN","POPULATION":48,"COUNTY":"TETON","COUNTYFIPS":"56039","COUNTRY":"USA","LATITUDE":43.480281847000001,"LONGITUDE":-110.74957793999999,"NAICS_CODE":"622110","NAICS_DESC":"GENERAL MEDICAL AND SURGICAL HOSPITALS","SOURCE":"https://health.wyo.gov/aging/hls/healthcare-facility-directory/","SOURCEDATE":1534118400000,"VAL_METHOD":"IMAGERY","VAL_DATE":1391990400000,"WEBSITE":"http://www.tetonhospital.org/","STATE_ID":"15109","ALT_NAME":"ST JOHN'S MEDICAL CENTER","ST_FIPS":"56","OWNER":"NON-PROFIT","TTL_STAFF":-999,"BEDS":48,"TRAUMA":"ATH","HELIPAD":"Y"}},{"type":"Feature","id":11,"geometry":{"type":"Point","coordinates":[-117.4090480540515,47.649035356143564]},"properties":{"OBJECTID":11,"ID":"0004399202","NAME":"ST. LUKE'S REHABILITATION INSTITUTE","ADDRESS":"711 COWLEY ST S","CITY":"SPOKANE","STATE":"WA","ZIP":"99202","ZIP4":"NOT AVAILABLE","TELEPHONE":"(509) 838-4771","TYPE":"REHABILITATION","STATUS":"OPEN","POPULATION":102,"COUNTY":"SPOKANE","COUNTYFIPS":"53063","COUNTRY":"USA","LATITUDE":47.649035355999999,"LONGITUDE":-117.409048054,"NAICS_CODE":"622310","NAICS_DESC":"PHYSICAL REHABILITATION HOSPITALS","SOURCE":"https://fortress.wa.gov/doh/facilitysearch/Default.aspx","SOURCEDATE":1533859200000,"VAL_METHOD":"IMAGERY","VAL_DATE":1391990400000,"WEBSITE":"https://www.st-lukes.org","STATE_ID":"157","ALT_NAME":"SACRED HEART MEDICAL CENTER","ST_FIPS":"53","OWNER":"NON-PROFIT","TTL_STAFF":-999,"BEDS":102,"TRAUMA":"LEVEL I PEDIATRIC","HELIPAD":"N"}},{"type":"Feature","id":12,"geometry":{"type":"Point","coordinates":[-118.14535981325828,47.657927719281695]},"properties":{"OBJECTID":12,"ID":"0008099122","NAME":"LINCOLN HOSPITAL","ADDRESS":"10 NICHOLS ST","CITY":"DAVENPORT","STATE":"WA","ZIP":"99122","ZIP4":"NOT AVAILABLE","TELEPHONE":"(509) 725-7101","TYPE":"CRITICAL ACCESS","STATUS":"OPEN","POPULATION":60,"COUNTY":"LINCOLN","COUNTYFIPS":"53043","COUNTRY":"USA","LATITUDE":47.657927719,"LONGITUDE":-118.145359813,"NAICS_CODE":"622110","NAICS_DESC":"GENERAL MEDICAL AND SURGICAL HOSPITALS","SOURCE":"https://fortress.wa.gov/doh/facilitysearch/Default.aspx","SOURCEDATE":1533859200000,"VAL_METHOD":"IMAGERY","VAL_DATE":1391990400000,"WEBSITE":"http://www.lincolnhospital.org","STATE_ID":"137","ALT_NAME":"ODESSA MEMORIAL HOSPITAL","ST_FIPS":"53","OWNER":"GOVERNMENT - DISTRICT/AUTHORITY","TTL_STAFF":-999,"BEDS":60,"TRAUMA":"LEVEL V","HELIPAD":"Y"}},{"type":"Feature","id":13,"geometry":{"type":"Point","coordinates":[-117.04919780307981,48.182422202230313]},"properties":{"OBJECTID":13,"ID":"0007099156","NAME":"NEWPORT HOSPITAL & HEALTH SERVICES","ADDRESS":"714 WEST PINE ST.","CITY":"NEWPORT","STATE":"WA","ZIP":"99156","ZIP4":"NOT AVAILABLE","TELEPHONE":"(509) 447-2441","TYPE":"CRITICAL ACCESS","STATUS":"OPEN","POPULATION":74,"COUNTY":"PEND OREILLE","COUNTYFIPS":"53051","COUNTRY":"USA","LATITUDE":48.182422201999998,"LONGITUDE":-117.049197803,"NAICS_CODE":"622110","NAICS_DESC":"GENERAL MEDICAL AND SURGICAL HOSPITALS","SOURCE":"https://fortress.wa.gov/doh/facilitysearch/Default.aspx","SOURCEDATE":1533859200000,"VAL_METHOD":"IMAGERY","VAL_DATE":1391990400000,"WEBSITE":"http://www.phd1.org/","STATE_ID":"21","ALT_NAME":"DEER PARK HEALTH CENTER & HOSPITAL","ST_FIPS":"53","OWNER":"GOVERNMENT - DISTRICT/AUTHORITY","TTL_STAFF":-999,"BEDS":74,"TRAUMA":"LEVEL IV","HELIPAD":"N"}},{"type":"Feature","id":14,"geometry":{"type":"Point","coordinates":[-115.54797204369915,48.391545574073682]},"properties":{"OBJECTID":14,"ID":"0002859923","NAME":"CABINET PEAKS MEDICAL CENTER","ADDRESS":"209 HEALTH PARK DRIVE","CITY":"LIBBY","STATE":"MT","ZIP":"59923","ZIP4":"NOT AVAILABLE","TELEPHONE":"(406) 283-7000","TYPE":"CRITICAL ACCESS","STATUS":"OPEN","POPULATION":25,"COUNTY":"LINCOLN","COUNTYFIPS":"30053","COUNTRY":"USA","LATITUDE":48.391545573999998,"LONGITUDE":-115.54797204400001,"NAICS_CODE":"622110","NAICS_DESC":"GENERAL MEDICAL AND SURGICAL HOSPITALS","SOURCE":"http://dphhs.mt.gov/qad/healthcarefacilitieslist","SOURCEDATE":1533772800000,"VAL_METHOD":"IMAGERY","VAL_DATE":1394668800000,"WEBSITE":"http://www.cabinetpeaks.org/","STATE_ID":"NOT AVAILABLE","ALT_NAME":"ST JOHNS LUTHERAN HOSPITAL","ST_FIPS":"30","OWNER":"NON-PROFIT","TTL_STAFF":-999,"BEDS":25,"TRAUMA":"NOT AVAILABLE","HELIPAD":"N"}},{"type":"Feature","id":15,"geometry":{"type":"Point","coordinates":[-114.10704469075358,47.528676483216032]},"properties":{"OBJECTID":15,"ID":"0003359864","NAME":"ST LUKE COMMUNITY HOSPITAL - CAH","ADDRESS":"107 6TH AVE SW","CITY":"RONAN","STATE":"MT","ZIP":"59864","ZIP4":"NOT AVAILABLE","TELEPHONE":"(406) 676-4441","TYPE":"CRITICAL ACCESS","STATUS":"OPEN","POPULATION":105,"COUNTY":"LAKE","COUNTYFIPS":"30047","COUNTRY":"USA","LATITUDE":47.528676482999998,"LONGITUDE":-114.107044691,"NAICS_CODE":"622110","NAICS_DESC":"GENERAL MEDICAL AND SURGICAL HOSPITALS","SOURCE":"http://dphhs.mt.gov/qad/healthcarefacilitieslist","SOURCEDATE":1533772800000,"VAL_METHOD":"IMAGERY/OTHER","VAL_DATE":1391990400000,"WEBSITE":"http://www.stlukehealthnet.org","STATE_ID":"NOT AVAILABLE","ALT_NAME":"NOT AVAILABLE","ST_FIPS":"30","OWNER":"NON-PROFIT","TTL_STAFF":-999,"BEDS":105,"TRAUMA":"TRF","HELIPAD":"Y"}},{"type":"Feature","id":16,"geometry":{"type":"Point","coordinates":[-113.29416392697033,46.330072212220465]},"properties":{"OBJECTID":16,"ID":"0004559858","NAME":"GRANITE COUNTY MEDICAL CENTER","ADDRESS":"310 SANSOME","CITY":"PHILIPSBURG","STATE":"MT","ZIP":"59858","ZIP4":"NOT AVAILABLE","TELEPHONE":"(406) 859-3271","TYPE":"CRITICAL ACCESS","STATUS":"OPEN","POPULATION":9,"COUNTY":"GRANITE","COUNTYFIPS":"30039","COUNTRY":"USA","LATITUDE":46.330072211999997,"LONGITUDE":-113.294163927,"NAICS_CODE":"622110","NAICS_DESC":"GENERAL MEDICAL AND SURGICAL HOSPITALS","SOURCE":"http://dphhs.mt.gov/qad/healthcarefacilitieslist","SOURCEDATE":1533772800000,"VAL_METHOD":"IMAGERY/OTHER","VAL_DATE":1394582400000,"WEBSITE":"http://gcmedcenter.org/","STATE_ID":"NOT AVAILABLE","ALT_NAME":"NOT AVAILABLE","ST_FIPS":"30","OWNER":"GOVERNMENT - LOCAL","TTL_STAFF":-999,"BEDS":9,"TRAUMA":"NOT AVAILABLE","HELIPAD":"Y"}},{"type":"Feature","id":17,"geometry":{"type":"Point","coordinates":[-114.0478795377955,46.847378361801127]},"properties":{"OBJECTID":17,"ID":"0006059804","NAME":"COMMUNITY MEDICAL CENTER INC","ADDRESS":"2827 FORT MISSOULA RD","CITY":"MISSOULA","STATE":"MT","ZIP":"59804","ZIP4":"NOT AVAILABLE","TELEPHONE":"(406) 728-4100","TYPE":"GENERAL ACUTE CARE","STATUS":"OPEN","POPULATION":151,"COUNTY":"MISSOULA","COUNTYFIPS":"30063","COUNTRY":"USA","LATITUDE":46.847378362000001,"LONGITUDE":-114.047879538,"NAICS_CODE":"622110","NAICS_DESC":"GENERAL MEDICAL AND SURGICAL HOSPITALS","SOURCE":"http://dphhs.mt.gov/qad/healthcarefacilitieslist","SOURCEDATE":1533772800000,"VAL_METHOD":"IMAGERY","VAL_DATE":1391990400000,"WEBSITE":"http://www.communitymed.org","STATE_ID":"639","ALT_NAME":"NOT AVAILABLE","ST_FIPS":"30","OWNER":"NON-PROFIT","TTL_STAFF":-999,"BEDS":151,"TRAUMA":"CTH","HELIPAD":"Y"}},{"type":"Feature","id":18,"geometry":{"type":"Point","coordinates":[-113.99991000018849,46.875910000259339]},"properties":{"OBJECTID":18,"ID":"0006159806","NAME":"ST PATRICK HOSPITAL","ADDRESS":"500 W BROADWAY","CITY":"MISSOULA","STATE":"MT","ZIP":"59806","ZIP4":"NOT AVAILABLE","TELEPHONE":"(406) 543-7271","TYPE":"GENERAL ACUTE CARE","STATUS":"OPEN","POPULATION":253,"COUNTY":"MISSOULA","COUNTYFIPS":"30063","COUNTRY":"USA","LATITUDE":46.875909999999998,"LONGITUDE":-113.99991,"NAICS_CODE":"622110","NAICS_DESC":"GENERAL MEDICAL AND SURGICAL HOSPITALS","SOURCE":"http://dphhs.mt.gov/qad/healthcarefacilitieslist","SOURCEDATE":1533772800000,"VAL_METHOD":"IMAGERY/OTHER","VAL_DATE":1391990400000,"WEBSITE":"http://www.saintpatrick.org","STATE_ID":"640","ALT_NAME":"NOT AVAILABLE","ST_FIPS":"30","OWNER":"NON-PROFIT","TTL_STAFF":-999,"BEDS":253,"TRAUMA":"RTC","HELIPAD":"Y"}},{"type":"Feature","id":19,"geometry":{"type":"Point","coordinates":[-111.30093121885406,45.260382126978939]},"properties":{"OBJECTID":19,"ID":"0006859716","NAME":"BOZEMAN HEALTH BIG SKY MEDICAL CENTER","ADDRESS":"334 TOWN CENTER AVENUE","CITY":"BIG SKY","STATE":"MT","ZIP":"59716","ZIP4":"NOT AVAILABLE","TELEPHONE":"(406) 995-6995","TYPE":"GENERAL ACUTE CARE","STATUS":"OPEN","POPULATION":4,"COUNTY":"GALLATIN","COUNTYFIPS":"30031","COUNTRY":"USA","LATITUDE":45.260382127,"LONGITUDE":-111.30093121900001,"NAICS_CODE":"622110","NAICS_DESC":"GENERAL MEDICAL AND SURGICAL HOSPITALS","SOURCE":"http://dphhs.mt.gov/qad/healthcarefacilitieslist","SOURCEDATE":1533772800000,"VAL_METHOD":"IMAGERY/OTHER","VAL_DATE":1471478400000,"WEBSITE":"https://www.bigskymedicalcenter.com/","STATE_ID":"NOT AVAILABLE","ALT_NAME":"NOT AVAILABLE","ST_FIPS":"30","OWNER":"NON-PROFIT","TTL_STAFF":-999,"BEDS":4,"TRAUMA":"NOT AVAILABLE","HELIPAD":"Y"}},{"type":"Feature","id":20,"geometry":{"type":"Point","coordinates":[-111.95337328791523,41.182657624234302]},"properties":{"OBJECTID":20,"ID":"0002884403","NAME":"MCKAY-DEE HOSPITAL CENTER","ADDRESS":"4401 HARRISON BOULEVARD","CITY":"OGDEN","STATE":"UT","ZIP":"84403","ZIP4":"NOT AVAILABLE","TELEPHONE":"(801) 387-2800","TYPE":"GENERAL ACUTE CARE","STATUS":"OPEN","POPULATION":310,"COUNTY":"WEBER","COUNTYFIPS":"49057","COUNTRY":"USA","LATITUDE":41.182657624000001,"LONGITUDE":-111.95337328799999,"NAICS_CODE":"622110","NAICS_DESC":"GENERAL MEDICAL AND SURGICAL HOSPITALS","SOURCE":"https://opendata.utah.gov/Health/Utah-Hospital-Characteristics/ierb-h3t5/data","SOURCEDATE":1533945600000,"VAL_METHOD":"IMAGERY","VAL_DATE":1394582400000,"WEBSITE":"http://www.mckay-dee.org","STATE_ID":"NOT AVAILABLE","ALT_NAME":"NOT AVAILABLE","ST_FIPS":"49","OWNER":"NON-PROFIT","TTL_STAFF":-999,"BEDS":310,"TRAUMA":"LEVEL II","HELIPAD":"Y"}},{"type":"Feature","id":21,"geometry":{"type":"Point","coordinates":[-111.82123039007071,41.775566468157223]},"properties":{"OBJECTID":21,"ID":"0001384341","NAME":"CACHE VALLEY SPECIALTY HOSPITAL","ADDRESS":"2380 NORTH 400 EAST","CITY":"NORTH LOGAN","STATE":"UT","ZIP":"84341","ZIP4":"NOT AVAILABLE","TELEPHONE":"(435) 713-9700","TYPE":"GENERAL ACUTE CARE","STATUS":"OPEN","POPULATION":15,"COUNTY":"CACHE","COUNTYFIPS":"49005","COUNTRY":"USA","LATITUDE":41.775566468000001,"LONGITUDE":-111.82123039,"NAICS_CODE":"622110","NAICS_DESC":"GENERAL MEDICAL AND SURGICAL HOSPITALS","SOURCE":"https://opendata.utah.gov/Health/Utah-Hospital-Characteristics/ierb-h3t5/data","SOURCEDATE":1533945600000,"VAL_METHOD":"IMAGERY/OTHER","VAL_DATE":1394582400000,"WEBSITE":"http://cachevalleyhospital.com/","STATE_ID":"NOT AVAILABLE","ALT_NAME":"NOT AVAILABLE","ST_FIPS":"49","OWNER":"PROPRIETARY","TTL_STAFF":-999,"BEDS":15,"TRAUMA":"LEVEL IV","HELIPAD":"Y"}},{"type":"Feature","id":22,"geometry":{"type":"Point","coordinates":[-112.64260051176663,45.206883582172338]},"properties":{"OBJECTID":22,"ID":"0001759725","NAME":"BARRETT HOSPITAL & HEALTHCARE","ADDRESS":"600 HWY 91 SOUTH","CITY":"DILLON","STATE":"MT","ZIP":"59725","ZIP4":"NOT AVAILABLE","TELEPHONE":"(406) 683-3000","TYPE":"CRITICAL ACCESS","STATUS":"OPEN","POPULATION":25,"COUNTY":"BEAVERHEAD","COUNTYFIPS":"30001","COUNTRY":"USA","LATITUDE":45.206883582000003,"LONGITUDE":-112.642600512,"NAICS_CODE":"622110","NAICS_DESC":"GENERAL MEDICAL AND SURGICAL HOSPITALS","SOURCE":"http://dphhs.mt.gov/qad/healthcarefacilitieslist","SOURCEDATE":1533772800000,"VAL_METHOD":"IMAGERY/OTHER","VAL_DATE":1385510400000,"WEBSITE":"http://www.barretthospital.org","STATE_ID":"NOT AVAILABLE","ALT_NAME":"NOT AVAILABLE","ST_FIPS":"30","OWNER":"GOVERNMENT - DISTRICT/AUTHORITY","TTL_STAFF":-999,"BEDS":25,"TRAUMA":"TRF","HELIPAD":"N"}},{"type":"Feature","id":23,"geometry":{"type":"Point","coordinates":[-117.05476129331487,46.402553687947844]},"properties":{"OBJECTID":23,"ID":"0004099403","NAME":"TRI-STATE MEMORIAL HOSPITAL","ADDRESS":"1221 HIGHLAND AVENUE","CITY":"CLARKSTON","STATE":"WA","ZIP":"99403","ZIP4":"NOT AVAILABLE","TELEPHONE":"(509) 758-5511","TYPE":"CRITICAL ACCESS","STATUS":"OPEN","POPULATION":25,"COUNTY":"ASOTIN","COUNTYFIPS":"53003","COUNTRY":"USA","LATITUDE":46.402553687999998,"LONGITUDE":-117.054761293,"NAICS_CODE":"622110","NAICS_DESC":"GENERAL MEDICAL AND SURGICAL HOSPITALS","SOURCE":"https://fortress.wa.gov/doh/facilitysearch/Default.aspx","SOURCEDATE":1533859200000,"VAL_METHOD":"IMAGERY/OTHER","VAL_DATE":1555372800000,"WEBSITE":"www.tristatehospital.org","STATE_ID":"108","ALT_NAME":"NOT AVAILABLE","ST_FIPS":"53","OWNER":"NON-PROFIT","TTL_STAFF":-999,"BEDS":25,"TRAUMA":"LEVEL IV","HELIPAD":"Y"}},{"type":"Feature","id":24,"geometry":{"type":"Point","coordinates":[-110.93043745620658,42.717329919178759]},"properties":{"OBJECTID":24,"ID":"0004183110","NAME":"STAR VALLEY MEDICAL CENTER","ADDRESS":"901 ADAMS STREET","CITY":"AFTON","STATE":"WY","ZIP":"83110","ZIP4":"NOT AVAILABLE","TELEPHONE":"(307) 885-5800","TYPE":"CRITICAL ACCESS","STATUS":"OPEN","POPULATION":22,"COUNTY":"LINCOLN","COUNTYFIPS":"56023","COUNTRY":"USA","LATITUDE":42.717329919000001,"LONGITUDE":-110.93043745600001,"NAICS_CODE":"622110","NAICS_DESC":"GENERAL MEDICAL AND SURGICAL HOSPITALS","SOURCE":"https://health.wyo.gov/aging/hls/healthcare-facility-directory/","SOURCEDATE":1534118400000,"VAL_METHOD":"IMAGERY/OTHER","VAL_DATE":1386115200000,"WEBSITE":"http://www.svmcwy.org","STATE_ID":"NOT AVAILABLE","ALT_NAME":"NOT AVAILABLE","ST_FIPS":"56","OWNER":"GOVERNMENT - DISTRICT/AUTHORITY","TTL_STAFF":-999,"BEDS":22,"TRAUMA":"CTH","HELIPAD":"Y"}},{"type":"Feature","id":25,"geometry":{"type":"Point","coordinates":[-117.71089436830027,48.277878627277737]},"properties":{"OBJECTID":25,"ID":"0002499109","NAME":"PROVIDENCE ST. JOSEPH'S HOSPITAL","ADDRESS":"500 E WEBSTER AVE","CITY":"CHEWELAH","STATE":"WA","ZIP":"99109","ZIP4":"NOT AVAILABLE","TELEPHONE":"(509) 935-8211","TYPE":"CRITICAL ACCESS","STATUS":"OPEN","POPULATION":65,"COUNTY":"STEVENS","COUNTYFIPS":"53065","COUNTRY":"USA","LATITUDE":48.277878627,"LONGITUDE":-117.710894368,"NAICS_CODE":"622110","NAICS_DESC":"GENERAL MEDICAL AND SURGICAL HOSPITALS","SOURCE":"https://fortress.wa.gov/doh/facilitysearch/Default.aspx","SOURCEDATE":1533859200000,"VAL_METHOD":"IMAGERY","VAL_DATE":1391990400000,"WEBSITE":"http://www.providence.org","STATE_ID":"194","ALT_NAME":"MOUNT CARMEL HOSPITAL","ST_FIPS":"53","OWNER":"NON-PROFIT","TTL_STAFF":-999,"BEDS":65,"TRAUMA":"LEVEL IV","HELIPAD":"Y"}},{"type":"Feature","id":26,"geometry":{"type":"Point","coordinates":[-117.60294818372496,46.475499232066682]},"properties":{"OBJECTID":26,"ID":"0007199347","NAME":"GARFIELD COUNTY PUBLIC HOSPITAL","ADDRESS":"66 N 6TH STREET","CITY":"POMEROY","STATE":"WA","ZIP":"99347","ZIP4":"NOT AVAILABLE","TELEPHONE":"(509) 843-1591","TYPE":"CRITICAL ACCESS","STATUS":"OPEN","POPULATION":45,"COUNTY":"GARFIELD","COUNTYFIPS":"53023","COUNTRY":"USA","LATITUDE":46.475499231999997,"LONGITUDE":-117.602948184,"NAICS_CODE":"622110","NAICS_DESC":"GENERAL MEDICAL AND SURGICAL HOSPITALS","SOURCE":"https://fortress.wa.gov/doh/facilitysearch/Default.aspx","SOURCEDATE":1533859200000,"VAL_METHOD":"IMAGERY","VAL_DATE":1391990400000,"WEBSITE":"www.garfieldcountyphd.org/","STATE_ID":"82","ALT_NAME":"TRI-STATE MEMORIAL HOSPITAL","ST_FIPS":"53","OWNER":"GOVERNMENT - DISTRICT/AUTHORITY","TTL_STAFF":-999,"BEDS":45,"TRAUMA":"LEVEL V","HELIPAD":"Y"}},{"type":"Feature","id":27,"geometry":{"type":"Point","coordinates":[-112.95692871117407,46.132692176236219]},"properties":{"OBJECTID":27,"ID":"0000159711","NAME":"COMMUNITY HOSPITAL OF ANACONDA","ADDRESS":"401 W PENNSYLVANIA AVE","CITY":"ANACONDA","STATE":"MT","ZIP":"59711","ZIP4":"NOT AVAILABLE","TELEPHONE":"(406) 563-8500","TYPE":"CRITICAL ACCESS","STATUS":"OPEN","POPULATION":87,"COUNTY":"DEER LODGE","COUNTYFIPS":"30023","COUNTRY":"USA","LATITUDE":46.132692175999999,"LONGITUDE":-112.956928711,"NAICS_CODE":"622110","NAICS_DESC":"GENERAL MEDICAL AND SURGICAL HOSPITALS","SOURCE":"http://dphhs.mt.gov/qad/healthcarefacilitieslist","SOURCEDATE":1533772800000,"VAL_METHOD":"IMAGERY/OTHER","VAL_DATE":1391990400000,"WEBSITE":"http://www.communityhospitalofanaconda.org","STATE_ID":"NOT AVAILABLE","ALT_NAME":"NOT AVAILABLE","ST_FIPS":"30","OWNER":"NON-PROFIT","TTL_STAFF":-999,"BEDS":87,"TRAUMA":"CTH","HELIPAD":"Y"}},{"type":"Feature","id":28,"geometry":{"type":"Point","coordinates":[-114.87664822639226,47.185267222088399]},"properties":{"OBJECTID":28,"ID":"0001859872","NAME":"MINERAL COMMUNITY HOSPITAL","ADDRESS":"1208 6TH AVE E","CITY":"SUPERIOR","STATE":"MT","ZIP":"59872","ZIP4":"NOT AVAILABLE","TELEPHONE":"(406) 822-4841","TYPE":"CRITICAL ACCESS","STATUS":"OPEN","POPULATION":25,"COUNTY":"MINERAL","COUNTYFIPS":"30061","COUNTRY":"USA","LATITUDE":47.185267222,"LONGITUDE":-114.876648226,"NAICS_CODE":"622110","NAICS_DESC":"GENERAL MEDICAL AND SURGICAL HOSPITALS","SOURCE":"http://dphhs.mt.gov/qad/healthcarefacilitieslist","SOURCEDATE":1533772800000,"VAL_METHOD":"IMAGERY/OTHER","VAL_DATE":1391990400000,"WEBSITE":"http://www.mineralcommunityhospital.com/","STATE_ID":"NOT AVAILABLE","ALT_NAME":"NOT AVAILABLE","ST_FIPS":"30","OWNER":"NON-PROFIT","TTL_STAFF":-999,"BEDS":25,"TRAUMA":"TRF","HELIPAD":"Y"}},{"type":"Feature","id":29,"geometry":{"type":"Point","coordinates":[-111.73201900103875,45.351747216867629]},"properties":{"OBJECTID":29,"ID":"0001959729","NAME":"MADISON VALLEY MEDICAL CENTER","ADDRESS":"305 N MAIN ST","CITY":"ENNIS","STATE":"MT","ZIP":"59729","ZIP4":"NOT AVAILABLE","TELEPHONE":"(406) 682-4222","TYPE":"CRITICAL ACCESS","STATUS":"OPEN","POPULATION":10,"COUNTY":"MADISON","COUNTYFIPS":"30057","COUNTRY":"USA","LATITUDE":45.351747217000003,"LONGITUDE":-111.732019001,"NAICS_CODE":"622110","NAICS_DESC":"GENERAL MEDICAL AND SURGICAL HOSPITALS","SOURCE":"http://dphhs.mt.gov/qad/healthcarefacilitieslist","SOURCEDATE":1533772800000,"VAL_METHOD":"IMAGERY/OTHER","VAL_DATE":1385510400000,"WEBSITE":"http://www.mvhospital-clinic.com","STATE_ID":"NOT AVAILABLE","ALT_NAME":"NOT AVAILABLE","ST_FIPS":"30","OWNER":"GOVERNMENT - DISTRICT/AUTHORITY","TTL_STAFF":-999,"BEDS":10,"TRAUMA":"TRF","HELIPAD":"Y"}},{"type":"Feature","id":30,"geometry":{"type":"Point","coordinates":[-114.88818836990933,47.468472665290456]},"properties":{"OBJECTID":30,"ID":"0003059859","NAME":"CLARK FORK VALLEY HOSPITAL","ADDRESS":"10 KRUGER RD","CITY":"PLAINS","STATE":"MT","ZIP":"59859","ZIP4":"NOT AVAILABLE","TELEPHONE":"(406) 826-4800","TYPE":"CRITICAL ACCESS","STATUS":"OPEN","POPULATION":44,"COUNTY":"SANDERS","COUNTYFIPS":"30089","COUNTRY":"USA","LATITUDE":47.468472665,"LONGITUDE":-114.88818836999999,"NAICS_CODE":"622110","NAICS_DESC":"GENERAL MEDICAL AND SURGICAL HOSPITALS","SOURCE":"http://dphhs.mt.gov/qad/healthcarefacilitieslist","SOURCEDATE":1533772800000,"VAL_METHOD":"IMAGERY/OTHER","VAL_DATE":1394582400000,"WEBSITE":"http://www.cfvh.org","STATE_ID":"NOT AVAILABLE","ALT_NAME":"NOT AVAILABLE","ST_FIPS":"30","OWNER":"NON-PROFIT","TTL_STAFF":-999,"BEDS":44,"TRAUMA":"CTH","HELIPAD":"Y"}},{"type":"Feature","id":31,"geometry":{"type":"Point","coordinates":[-110.99049812709501,41.243348271157473]},"properties":{"OBJECTID":31,"ID":"0003582930","NAME":"EVANSTON REGIONAL HOSPITAL","ADDRESS":"190 ARROWHEAD DRIVE","CITY":"EVANSTON","STATE":"WY","ZIP":"82930","ZIP4":"NOT AVAILABLE","TELEPHONE":"(307) 789-3636","TYPE":"GENERAL ACUTE CARE","STATUS":"OPEN","POPULATION":42,"COUNTY":"UINTA","COUNTYFIPS":"56041","COUNTRY":"USA","LATITUDE":41.243348271000002,"LONGITUDE":-110.990498127,"NAICS_CODE":"622110","NAICS_DESC":"GENERAL MEDICAL AND SURGICAL HOSPITALS","SOURCE":"https://health.wyo.gov/aging/hls/healthcare-facility-directory/","SOURCEDATE":1534118400000,"VAL_METHOD":"IMAGERY","VAL_DATE":1394582400000,"WEBSITE":"http://www.evanstonregionalhospital.com","STATE_ID":"15107","ALT_NAME":"NOT AVAILABLE","ST_FIPS":"56","OWNER":"PROPRIETARY","TTL_STAFF":-999,"BEDS":42,"TRAUMA":"CTH","HELIPAD":"Y"}},{"type":"Feature","id":32,"geometry":{"type":"Point","coordinates":[-116.09779699765681,41.949891633068695]},"properties":{"OBJECTID":32,"ID":"0113689832","NAME":"PUBLIC HEALTH SERV INDIAN HOSP","ADDRESS":"1623 HOSPITAL LOOP","CITY":"OWYHEE","STATE":"NV","ZIP":"89832","ZIP4":"NOT AVAILABLE","TELEPHONE":"NOT AVAILABLE","TYPE":"CRITICAL ACCESS","STATUS":"OPEN","POPULATION":-999,"COUNTY":"ELKO","COUNTYFIPS":"32007","COUNTRY":"USA","LATITUDE":41.949891633,"LONGITUDE":-116.09779699800001,"NAICS_CODE":"622110","NAICS_DESC":"GENERAL MEDICAL AND SURGICAL HOSPITALS","SOURCE":"http://dpbh.nv.gov/Reg/HealthFacilities/Community_Resources/","SOURCEDATE":1533772800000,"VAL_METHOD":"IMAGERY","VAL_DATE":1423526400000,"WEBSITE":"http://www.shopaitribes.org/spochf/","STATE_ID":"NOT AVAILABLE","ALT_NAME":"NOT AVAILABLE","ST_FIPS":"32","OWNER":"NOT AVAILABLE","TTL_STAFF":-999,"BEDS":-999,"TRAUMA":"NOT AVAILABLE","HELIPAD":"Y"}},{"type":"Feature","id":33,"geometry":{"type":"Point","coordinates":[-117.84712329004554,44.795151447034868]},"properties":{"OBJECTID":33,"ID":"0005497814","NAME":"SAINT ALPHONSUS MEDICAL CENTER - BAKER CITY, INC","ADDRESS":"3325 POCAHONTAS ROAD","CITY":"BAKER CITY","STATE":"OR","ZIP":"97814","ZIP4":"NOT AVAILABLE","TELEPHONE":"NOT AVAILABLE","TYPE":"GENERAL ACUTE CARE","STATUS":"OPEN","POPULATION":65,"COUNTY":"BAKER","COUNTYFIPS":"41001","COUNTRY":"USA","LATITUDE":44.795151447000002,"LONGITUDE":-117.84712329,"NAICS_CODE":"622110","NAICS_DESC":"GENERAL MEDICAL AND SURGICAL HOSPITALS","SOURCE":"https://public.health.oregon.gov/ProviderPartnerResources/HealthcareProvidersFacilities/HealthcareHealthCareRegulationQualityImprovement/Pages/forms.aspx#Hospital","SOURCEDATE":1533859200000,"VAL_METHOD":"IMAGERY","VAL_DATE":1394582400000,"WEBSITE":"http://www.saintalphonsus.org/bakercity","STATE_ID":"14-1469","ALT_NAME":"NOT AVAILABLE","ST_FIPS":"41","OWNER":"NON-PROFIT","TTL_STAFF":-999,"BEDS":65,"TRAUMA":"LEVEL IV","HELIPAD":"Y"}},{"type":"Feature","id":34,"geometry":{"type":"Point","coordinates":[-110.54169440059594,41.789708037745619]},"properties":{"OBJECTID":34,"ID":"0001983101","NAME":"SOUTH LINCOLN MEDICAL CENTER","ADDRESS":"711 ONYX STREET","CITY":"KEMMERER","STATE":"WY","ZIP":"83101","ZIP4":"NOT AVAILABLE","TELEPHONE":"(307) 877-4401","TYPE":"CRITICAL ACCESS","STATUS":"OPEN","POPULATION":16,"COUNTY":"LINCOLN","COUNTYFIPS":"56023","COUNTRY":"USA","LATITUDE":41.789708038000001,"LONGITUDE":-110.541694401,"NAICS_CODE":"622110","NAICS_DESC":"GENERAL MEDICAL AND SURGICAL HOSPITALS","SOURCE":"https://health.wyo.gov/aging/hls/healthcare-facility-directory/","SOURCEDATE":1534118400000,"VAL_METHOD":"IMAGERY","VAL_DATE":1394582400000,"WEBSITE":"http://www.southlincolnmedical.com","STATE_ID":"15186","ALT_NAME":"NOT AVAILABLE","ST_FIPS":"56","OWNER":"GOVERNMENT - DISTRICT/AUTHORITY","TTL_STAFF":-999,"BEDS":16,"TRAUMA":"TRF","HELIPAD":"Y"}},{"type":"Feature","id":35,"geometry":{"type":"Point","coordinates":[-111.9703898731197,41.164377513091885]},"properties":{"OBJECTID":35,"ID":"0001884405","NAME":"OGDEN REGIONAL MEDICAL CENTER","ADDRESS":"5475 SOUTH 500 EAST","CITY":"OGDEN","STATE":"UT","ZIP":"84405","ZIP4":"NOT AVAILABLE","TELEPHONE":"(801) 479-2111","TYPE":"GENERAL ACUTE CARE","STATUS":"OPEN","POPULATION":167,"COUNTY":"WEBER","COUNTYFIPS":"49057","COUNTRY":"USA","LATITUDE":41.164377512999998,"LONGITUDE":-111.970389873,"NAICS_CODE":"622110","NAICS_DESC":"GENERAL MEDICAL AND SURGICAL HOSPITALS","SOURCE":"https://opendata.utah.gov/Health/Utah-Hospital-Characteristics/ierb-h3t5/data","SOURCEDATE":1533945600000,"VAL_METHOD":"IMAGERY/OTHER","VAL_DATE":1394582400000,"WEBSITE":"http://www.ogdenregional.com","STATE_ID":"NOT AVAILABLE","ALT_NAME":"NOT AVAILABLE","ST_FIPS":"49","OWNER":"PROPRIETARY","TTL_STAFF":-999,"BEDS":167,"TRAUMA":"LEVEL II","HELIPAD":"Y"}},{"type":"Feature","id":36,"geometry":{"type":"Point","coordinates":[-111.82218316122736,41.755680643234314]},"properties":{"OBJECTID":36,"ID":"0004084341","NAME":"LOGAN REGIONAL HOSPITAL","ADDRESS":"500 EAST 1400 NORTH","CITY":"LOGAN","STATE":"UT","ZIP":"84341","ZIP4":"NOT AVAILABLE","TELEPHONE":"(435) 716-1000","TYPE":"GENERAL ACUTE CARE","STATUS":"OPEN","POPULATION":135,"COUNTY":"CACHE","COUNTYFIPS":"49005","COUNTRY":"USA","LATITUDE":41.755680642999998,"LONGITUDE":-111.822183161,"NAICS_CODE":"622110","NAICS_DESC":"GENERAL MEDICAL AND SURGICAL HOSPITALS","SOURCE":"https://opendata.utah.gov/Health/Utah-Hospital-Characteristics/ierb-h3t5/data","SOURCEDATE":1533945600000,"VAL_METHOD":"IMAGERY","VAL_DATE":1391990400000,"WEBSITE":"http://www.loganregionalhospital.org","STATE_ID":"NOT AVAILABLE","ALT_NAME":"NOT AVAILABLE","ST_FIPS":"49","OWNER":"NON-PROFIT","TTL_STAFF":-999,"BEDS":135,"TRAUMA":"LEVEL III","HELIPAD":"Y"}},{"type":"Feature","id":37,"geometry":{"type":"Point","coordinates":[-112.02575566805893,41.491227149298432]},"properties":{"OBJECTID":37,"ID":"0000384302","NAME":"BRIGHAM CITY COMMUNITY HOSPITAL","ADDRESS":"950 SOUTH MEDICAL DRIVE","CITY":"BRIGHAM CITY","STATE":"UT","ZIP":"84302","ZIP4":"NOT AVAILABLE","TELEPHONE":"(435) 734-9471","TYPE":"GENERAL ACUTE CARE","STATUS":"OPEN","POPULATION":39,"COUNTY":"BOX ELDER","COUNTYFIPS":"49003","COUNTRY":"USA","LATITUDE":41.491227148999997,"LONGITUDE":-112.025755668,"NAICS_CODE":"622110","NAICS_DESC":"GENERAL MEDICAL AND SURGICAL HOSPITALS","SOURCE":"https://opendata.utah.gov/Health/Utah-Hospital-Characteristics/ierb-h3t5/data","SOURCEDATE":1533945600000,"VAL_METHOD":"IMAGERY","VAL_DATE":1394582400000,"WEBSITE":"http://www.brighamcityhospital.com","STATE_ID":"NOT AVAILABLE","ALT_NAME":"NOT AVAILABLE","ST_FIPS":"49","OWNER":"PROPRIETARY","TTL_STAFF":-999,"BEDS":39,"TRAUMA":"LEVEL IV","HELIPAD":"Y"}},{"type":"Feature","id":38,"geometry":{"type":"Point","coordinates":[-112.18257693067518,41.7241487082633]},"properties":{"OBJECTID":38,"ID":"0003984337","NAME":"BEAR RIVER VALLEY HOSPITAL","ADDRESS":"905 NORTH 1000 WEST","CITY":"TREMONTON","STATE":"UT","ZIP":"84337","ZIP4":"NOT AVAILABLE","TELEPHONE":"(435) 207-4500","TYPE":"GENERAL ACUTE CARE","STATUS":"OPEN","POPULATION":14,"COUNTY":"BOX ELDER","COUNTYFIPS":"49003","COUNTRY":"USA","LATITUDE":41.724148708000001,"LONGITUDE":-112.182576931,"NAICS_CODE":"622110","NAICS_DESC":"GENERAL MEDICAL AND SURGICAL HOSPITALS","SOURCE":"https://opendata.utah.gov/Health/Utah-Hospital-Characteristics/ierb-h3t5/data","SOURCEDATE":1533945600000,"VAL_METHOD":"IMAGERY","VAL_DATE":1391990400000,"WEBSITE":"http://www.intermountainhealthcare.org/hospitals/bearriver","STATE_ID":"NOT AVAILABLE","ALT_NAME":"NOT AVAILABLE","ST_FIPS":"49","OWNER":"NON-PROFIT","TTL_STAFF":-999,"BEDS":14,"TRAUMA":"LEVEL IV","HELIPAD":"Y"}},{"type":"Feature","id":39,"geometry":{"type":"Point","coordinates":[-116.97769201066845,44.025333019224334]},"properties":{"OBJECTID":39,"ID":"0003397914","NAME":"SAINT ALPHONSUS MEDICAL CENTER - ONTARIO","ADDRESS":"351 SW 9TH STREET","CITY":"ONTARIO","STATE":"OR","ZIP":"97914","ZIP4":"NOT AVAILABLE","TELEPHONE":"(541) 881-7000","TYPE":"GENERAL ACUTE CARE","STATUS":"OPEN","POPULATION":49,"COUNTY":"MALHEUR","COUNTYFIPS":"41045","COUNTRY":"USA","LATITUDE":44.025333019000001,"LONGITUDE":-116.977692011,"NAICS_CODE":"622110","NAICS_DESC":"GENERAL MEDICAL AND SURGICAL HOSPITALS","SOURCE":"https://public.health.oregon.gov/ProviderPartnerResources/HealthcareProvidersFacilities/HealthcareHealthCareRegulationQualityImprovement/Pages/forms.aspx#Hospital","SOURCEDATE":1533859200000,"VAL_METHOD":"IMAGERY/OTHER","VAL_DATE":1394582400000,"WEBSITE":"www.saintalphonsus.org/ontario","STATE_ID":"14-1470","ALT_NAME":"NOT AVAILABLE","ST_FIPS":"41","OWNER":"NON-PROFIT","TTL_STAFF":-999,"BEDS":49,"TRAUMA":"LEVEL IV","HELIPAD":"Y"}},{"type":"Feature","id":40,"geometry":{"type":"Point","coordinates":[-117.69395067688954,47.573145633010988]},"properties":{"OBJECTID":40,"ID":"0000199022","NAME":"EASTERN STATE HOSPITAL","ADDRESS":"850 MAPLE ST","CITY":"MEDICAL LAKE","STATE":"WA","ZIP":"99022","ZIP4":"NOT AVAILABLE","TELEPHONE":"(509) 299-4351","TYPE":"PSYCHIATRIC","STATUS":"OPEN","POPULATION":195,"COUNTY":"SPOKANE","COUNTYFIPS":"53063","COUNTRY":"USA","LATITUDE":47.573145633000003,"LONGITUDE":-117.693950677,"NAICS_CODE":"622210","NAICS_DESC":"PSYCHIATRIC AND SUBSTANCE ABUSE HOSPITALS","SOURCE":"https://fortress.wa.gov/doh/facilitysearch/Default.aspx","SOURCEDATE":1533859200000,"VAL_METHOD":"IMAGERY","VAL_DATE":1391990400000,"WEBSITE":"https://www.dshs.wa.gov/bha/division-state-hospitals/eastern-state-hospital-overview","STATE_ID":"NOT AVAILABLE","ALT_NAME":"NOT AVAILABLE","ST_FIPS":"53","OWNER":"GOVERNMENT - STATE","TTL_STAFF":-999,"BEDS":195,"TRAUMA":"NOT AVAILABLE","HELIPAD":"N"}},{"type":"Feature","id":41,"geometry":{"type":"Point","coordinates":[-117.40672503228635,47.709754422704741]},"properties":{"OBJECTID":41,"ID":"0001999207","NAME":"PROVIDENCE HOLY FAMILY HOSPITAL","ADDRESS":"5633 N. LIDGERWOOD ST","CITY":"SPOKANE","STATE":"WA","ZIP":"99207","ZIP4":"NOT AVAILABLE","TELEPHONE":"(509) 482-0111","TYPE":"GENERAL ACUTE CARE","STATUS":"OPEN","POPULATION":272,"COUNTY":"SPOKANE","COUNTYFIPS":"53063","COUNTRY":"USA","LATITUDE":47.709754423,"LONGITUDE":-117.406725032,"NAICS_CODE":"622110","NAICS_DESC":"GENERAL MEDICAL AND SURGICAL HOSPITALS","SOURCE":"https://fortress.wa.gov/doh/facilitysearch/Default.aspx","SOURCEDATE":1533859200000,"VAL_METHOD":"IMAGERY","VAL_DATE":1391990400000,"WEBSITE":"http://www.providence.org","STATE_ID":"139","ALT_NAME":"SHRINERS HOSPITAL FOR CRIPPLED CHILDREN-SPOKANE UNIT","ST_FIPS":"53","OWNER":"NON-PROFIT","TTL_STAFF":-999,"BEDS":272,"TRAUMA":"LEVEL III","HELIPAD":"Y"}},{"type":"Feature","id":42,"geometry":{"type":"Point","coordinates":[-117.42567115560192,47.650902411883138]},"properties":{"OBJECTID":42,"ID":"0003699204","NAME":"SHRINERS HOSPITAL FOR CHILDREN","ADDRESS":"911 W. 5TH AVENUE","CITY":"SPOKANE","STATE":"WA","ZIP":"99204","ZIP4":"NOT AVAILABLE","TELEPHONE":"(509) 455-7844","TYPE":"CHILDREN","STATUS":"OPEN","POPULATION":30,"COUNTY":"SPOKANE","COUNTYFIPS":"53063","COUNTRY":"USA","LATITUDE":47.650902412000001,"LONGITUDE":-117.42567115600001,"NAICS_CODE":"622110","NAICS_DESC":"CHILDREN'S HOSPITALS, GENERAL","SOURCE":"https://fortress.wa.gov/doh/facilitysearch/Default.aspx","SOURCEDATE":1533859200000,"VAL_METHOD":"IMAGERY","VAL_DATE":1391990400000,"WEBSITE":"http://www.shrinershospitalsforchildren.org/","STATE_ID":"42","ALT_NAME":"DEACONESS MEDICAL CENTER","ST_FIPS":"53","OWNER":"NON-PROFIT","TTL_STAFF":-999,"BEDS":30,"TRAUMA":"NOT AVAILABLE","HELIPAD":"Y"}},{"type":"Feature","id":43,"geometry":{"type":"Point","coordinates":[-117.40856125789735,47.65024306121142]},"properties":{"OBJECTID":43,"ID":"0004199202","NAME":"DAYBREAK OF SPOKANE","ADDRESS":"628 SOUTH COWLEY","CITY":"SPOKANE","STATE":"WA","ZIP":"99202","ZIP4":"NOT AVAILABLE","TELEPHONE":"(509) 624-3227","TYPE":"REHABILITATION","STATUS":"CLOSED","POPULATION":34,"COUNTY":"SPOKANE","COUNTYFIPS":"53063","COUNTRY":"USA","LATITUDE":47.650243060999998,"LONGITUDE":-117.40856125800001,"NAICS_CODE":"622210","NAICS_DESC":"HOSPITALS, ADDICTION","SOURCE":"http://www.doh.wa.gov/DataandStatisticalReports/HealthcareinWashington/HospitalandPatientData/HospitalFinancialData.aspx","SOURCEDATE":1343865600000,"VAL_METHOD":"IMAGERY","VAL_DATE":1391990400000,"WEBSITE":"https://daybreakyouthservices.org/","STATE_ID":"NOT AVAILABLE","ALT_NAME":"NOT AVAILABLE","ST_FIPS":"53","OWNER":"NON-PROFIT","TTL_STAFF":-999,"BEDS":34,"TRAUMA":"NOT AVAILABLE","HELIPAD":"N"}},{"type":"Feature","id":44,"geometry":{"type":"Point","coordinates":[-117.47769595699772,47.702472919138401]},"properties":{"OBJECTID":44,"ID":"0004299205","NAME":"SPOKANE VA MEDICAL CENTER","ADDRESS":"4815 N. ASSEMBLY ST.","CITY":"SPOKANE","STATE":"WA","ZIP":"99205","ZIP4":"NOT AVAILABLE","TELEPHONE":"(509) 434-7000","TYPE":"MILITARY","STATUS":"OPEN","POPULATION":132,"COUNTY":"SPOKANE","COUNTYFIPS":"53063","COUNTRY":"USA","LATITUDE":47.702472919000002,"LONGITUDE":-117.47769595699999,"NAICS_CODE":"622110","NAICS_DESC":"GENERAL MEDICAL AND SURGICAL HOSPITALS","SOURCE":"https://fortress.wa.gov/doh/facilitysearch/Default.aspx","SOURCEDATE":1533859200000,"VAL_METHOD":"IMAGERY","VAL_DATE":1391990400000,"WEBSITE":"http://www.spokane.va.gov/","STATE_ID":"NOT AVAILABLE","ALT_NAME":"NOT AVAILABLE","ST_FIPS":"53","OWNER":"GOVERNMENT - FEDERAL","TTL_STAFF":-999,"BEDS":132,"TRAUMA":"NOT AVAILABLE","HELIPAD":"N"}},{"type":"Feature","id":45,"geometry":{"type":"Point","coordinates":[-117.97025384698868,46.312104775950132]},"properties":{"OBJECTID":45,"ID":"0007499328","NAME":"DAYTON GENERAL HOSPITAL","ADDRESS":"1012 S 3RD ST","CITY":"DAYTON","STATE":"WA","ZIP":"99328","ZIP4":"NOT AVAILABLE","TELEPHONE":"(509) 382-2531","TYPE":"CRITICAL ACCESS","STATUS":"OPEN","POPULATION":25,"COUNTY":"COLUMBIA","COUNTYFIPS":"53013","COUNTRY":"USA","LATITUDE":46.312104775999998,"LONGITUDE":-117.970253847,"NAICS_CODE":"622110","NAICS_DESC":"GENERAL MEDICAL AND SURGICAL HOSPITALS","SOURCE":"https://fortress.wa.gov/doh/facilitysearch/Default.aspx","SOURCEDATE":1533859200000,"VAL_METHOD":"IMAGERY","VAL_DATE":1391990400000,"WEBSITE":"http://www.cchd-wa.org","STATE_ID":"141","ALT_NAME":"SAINT MARY MEDICAL CENTER","ST_FIPS":"53","OWNER":"GOVERNMENT - LOCAL","TTL_STAFF":-999,"BEDS":25,"TRAUMA":"LEVEL V","HELIPAD":"Y"}},{"type":"Feature","id":46,"geometry":{"type":"Point","coordinates":[-117.28446131635472,45.432365256043042]},"properties":{"OBJECTID":46,"ID":"0006697828","NAME":"WALLOWA MEMORIAL HOSPITAL","ADDRESS":"601 MEDICAL PARKWAY","CITY":"ENTERPRISE","STATE":"OR","ZIP":"97828","ZIP4":"NOT AVAILABLE","TELEPHONE":"NOT AVAILABLE","TYPE":"CRITICAL ACCESS","STATUS":"OPEN","POPULATION":57,"COUNTY":"WALLOWA","COUNTYFIPS":"41063","COUNTRY":"USA","LATITUDE":45.432365255999997,"LONGITUDE":-117.28446131600001,"NAICS_CODE":"622110","NAICS_DESC":"GENERAL MEDICAL AND SURGICAL HOSPITALS","SOURCE":"https://public.health.oregon.gov/ProviderPartnerResources/HealthcareProvidersFacilities/HealthcareHealthCareRegulationQualityImprovement/Pages/forms.aspx#Hospital","SOURCEDATE":1533859200000,"VAL_METHOD":"IMAGERY","VAL_DATE":1384128000000,"WEBSITE":"www.wchcd.org","STATE_ID":"14-0068","ALT_NAME":"NOT AVAILABLE","ST_FIPS":"41","OWNER":"GOVERNMENT - DISTRICT/AUTHORITY","TTL_STAFF":-999,"BEDS":57,"TRAUMA":"LEVEL IV","HELIPAD":"Y"}}]}