{"type":"FeatureCollection","features":[{"type":"Feature","id":1,"geometry":{"type":"Point","coordinates":[-116.19157646094399,43.615587650080712]},"properties":{"OBJECTID":1,"ID":"0155683702","NAME":"ST. LUKE'S REHABILITATION","ADDRESS":"600 N. ROBBINS ROAD","CITY":"BOISE","STATE":"ID","ZIP":"83702","ZIP4":"NOT AVAILABLE","TELEPHONE":"(208) 489-4444","TYPE":"REHABILITATION","STATUS":"OPEN","POPULATION":-999,"COUNTY":"ADA","COUNTYFIPS":"16001","COUNTRY":"USA","LATITUDE":43.615587650000066,"LONGITUDE":-116.19157646099995,"NAICS_CODE":"622310","NAICS_DESC":"REHABILITATION HOSPITALS (EXCEPT ALCOHOLISM, DRUG ADDICTION)","SOURCE":"http://healthandwelfare.idaho.gov/portals/0/medical/licensingcertification/alphahospital.pdf","SOURCEDATE":1596844800000,"VAL_METHOD":"IMAGERY/OTHER","VAL_DATE":1432944000000,"WEBSITE":"https://www.stlukesonline.org/health-services/service-groups/rehabilitation.","STATE_ID":"NOT AVAILABLE","ALT_NAME":"NOT AVAILABLE","ST_FIPS":"16","OWNER":"NON-PROFIT","TTL_STAFF":-999,"BEDS":-999,"TRAUMA":"NOT AVAILABLE","HELIPAD":"N"}},{"type":"Feature","id":2,"geometry":{"type":"Point","coordinates":[-114.3500210303618,43.648320249786572]},"properties":{"OBJECTID":2,"ID":"0156083340","NAME":"ST. LUKE'S WOOD RIVER MEDICAL CENTER","ADDRESS":"100 HOSPITAL DRIVE","CITY":"KETCHUM","STATE":"ID","ZIP":"83340","ZIP4":"NOT AVAILABLE","TELEPHONE":"(208) 727-8800","TYPE":"SPECIAL","STATUS":"OPEN","POPULATION":25,"COUNTY":"BLAINE","COUNTYFIPS":"16013","COUNTRY":"USA","LATITUDE":43.64832025000004,"LONGITUDE":-114.35002102999999,"NAICS_CODE":"622110","NAICS_DESC":"GENERAL MEDICAL AND SURGICAL HOSPITALS","SOURCE":"http://healthandwelfare.idaho.gov/portals/0/medical/licensingcertification/alphahospital.pdf","SOURCEDATE":1596844800000,"VAL_METHOD":"IMAGERY/OTHER","VAL_DATE":1432944000000,"WEBSITE":"NOT AVAILABLE","STATE_ID":"NOT AVAILABLE","ALT_NAME":"NOT AVAILABLE","ST_FIPS":"16","OWNER":"NON-PROFIT","TTL_STAFF":-999,"BEDS":25,"TRAUMA":"NOT AVAILABLE","HELIPAD":"Y"}},{"type":"Feature","id":3,"geometry":{"type":"Point","coordinates":[-112.35416957239389,43.196302088882945]},"properties":{"OBJECTID":3,"ID":"0005183221","NAME":"GROVE CREEK MEDICAL CENTER","ADDRESS":"350 NORTH MERIDIAN ST","CITY":"BLACKFOOT","STATE":"ID","ZIP":"83221","ZIP4":"NOT AVAILABLE","TELEPHONE":"(208) 785-2900","TYPE":"GENERAL ACUTE CARE","STATUS":"OPEN","POPULATION":8,"COUNTY":"BINGHAM","COUNTYFIPS":"16011","COUNTRY":"USA","LATITUDE":43.196302089000028,"LONGITUDE":-112.35416957199999,"NAICS_CODE":"622110","NAICS_DESC":"GENERAL MEDICAL AND SURGICAL HOSPITALS","SOURCE":"http://healthandwelfare.idaho.gov/portals/0/medical/licensingcertification/alphahospital.pdf","SOURCEDATE":1596844800000,"VAL_METHOD":"IMAGERY","VAL_DATE":1461196800000,"WEBSITE":"http://www.binghammemorial.org/idh.html","STATE_ID":"NOT AVAILABLE","ALT_NAME":"NOT AVAILABLE","ST_FIPS":"16","OWNER":"NON-PROFIT","TTL_STAFF":-999,"BEDS":8,"TRAUMA":"NOT AVAILABLE","HELIPAD":"N"}},{"type":"Feature","id":4,"geometry":{"type":"Point","coordinates":[-111.98792070340012,43.474366014866284]},"properties":{"OBJECTID":4,"ID":"0005283404","NAME":"MOUNTAIN VIEW HOSPITAL","ADDRESS":"2325 CORONADO STREET","CITY":"IDAHO FALLS","STATE":"ID","ZIP":"83404","ZIP4":"NOT AVAILABLE","TELEPHONE":"(208) 557-2700","TYPE":"GENERAL ACUTE CARE","STATUS":"OPEN","POPULATION":43,"COUNTY":"BONNEVILLE","COUNTYFIPS":"16019","COUNTRY":"USA","LATITUDE":43.474366015000044,"LONGITUDE":-111.98792070299999,"NAICS_CODE":"622110","NAICS_DESC":"GENERAL MEDICAL AND SURGICAL HOSPITALS","SOURCE":"http://healthandwelfare.idaho.gov/portals/0/medical/licensingcertification/alphahospital.pdf","SOURCEDATE":1596844800000,"VAL_METHOD":"IMAGERY","VAL_DATE":1461196800000,"WEBSITE":"https://www.mountainviewhospital.org/","STATE_ID":"NOT AVAILABLE","ALT_NAME":"NOT AVAILABLE","ST_FIPS":"16","OWNER":"NON-PROFIT","TTL_STAFF":-999,"BEDS":43,"TRAUMA":"NOT AVAILABLE","HELIPAD":"N"}},{"type":"Feature","id":5,"geometry":{"type":"Point","coordinates":[-112.42076203205369,42.873853005296198]},"properties":{"OBJECTID":5,"ID":"0003183201","NAME":"PORTNEUF MEDICAL CENTER","ADDRESS":"777 HOSPITAL WAY","CITY":"POCATELLO","STATE":"ID","ZIP":"83201","ZIP4":"NOT AVAILABLE","TELEPHONE":"(208) 239-1000","TYPE":"GENERAL ACUTE CARE","STATUS":"OPEN","POPULATION":205,"COUNTY":"BANNOCK","COUNTYFIPS":"16005","COUNTRY":"USA","LATITUDE":42.873853005000058,"LONGITUDE":-112.42076203199997,"NAICS_CODE":"622110","NAICS_DESC":"GENERAL MEDICAL AND SURGICAL HOSPITALS","SOURCE":"http://healthandwelfare.idaho.gov/portals/0/medical/licensingcertification/alphahospital.pdf","SOURCEDATE":1596844800000,"VAL_METHOD":"IMAGERY","VAL_DATE":1461196800000,"WEBSITE":"http://www.portmed.org","STATE_ID":"NOT AVAILABLE","ALT_NAME":"NOT AVAILABLE","ST_FIPS":"16","OWNER":"PROPRIETARY","TTL_STAFF":-999,"BEDS":205,"TRAUMA":"LEVEL II","HELIPAD":"Y"}},{"type":"Feature","id":6,"geometry":{"type":"Point","coordinates":[-116.2558080977315,43.613432795130798]},"properties":{"OBJECTID":6,"ID":"0001083706","NAME":"SAINT ALPHONSUS REGIONAL MEDICAL CENTER","ADDRESS":"1055 NORTH CURTIS ROAD","CITY":"BOISE","STATE":"ID","ZIP":"83706","ZIP4":"NOT AVAILABLE","TELEPHONE":"(208) 367-2121","TYPE":"GENERAL ACUTE CARE","STATUS":"OPEN","POPULATION":384,"COUNTY":"ADA","COUNTYFIPS":"16001","COUNTRY":"USA","LATITUDE":43.613432795000051,"LONGITUDE":-116.25580809799999,"NAICS_CODE":"622110","NAICS_DESC":"GENERAL MEDICAL AND SURGICAL HOSPITALS","SOURCE":"http://healthandwelfare.idaho.gov/portals/0/medical/licensingcertification/alphahospital.pdf","SOURCEDATE":1596844800000,"VAL_METHOD":"IMAGERY","VAL_DATE":1391990400000,"WEBSITE":"http://www.saintalphonsus.org","STATE_ID":"NOT AVAILABLE","ALT_NAME":"NOT AVAILABLE","ST_FIPS":"16","OWNER":"NON-PROFIT","TTL_STAFF":-999,"BEDS":384,"TRAUMA":"LEVEL II","HELIPAD":"Y"}},{"type":"Feature","id":7,"geometry":{"type":"Point","coordinates":[-116.79370267192782,47.695503316267605]},"properties":{"OBJECTID":7,"ID":"0000783814","NAME":"KOOTENAI HEALTH","ADDRESS":"2003 KOOTENAI HEALTH WAY","CITY":"COEUR D'ALENE","STATE":"ID","ZIP":"83814","ZIP4":"NOT AVAILABLE","TELEPHONE":"(208) 666-2000","TYPE":"GENERAL ACUTE CARE","STATUS":"OPEN","POPULATION":292,"COUNTY":"KOOTENAI","COUNTYFIPS":"16055","COUNTRY":"USA","LATITUDE":47.695503316000043,"LONGITUDE":-116.79370267199994,"NAICS_CODE":"622110","NAICS_DESC":"GENERAL MEDICAL AND SURGICAL HOSPITALS","SOURCE":"http://healthandwelfare.idaho.gov/portals/0/medical/licensingcertification/alphahospital.pdf","SOURCEDATE":1596844800000,"VAL_METHOD":"IMAGERY","VAL_DATE":1394582400000,"WEBSITE":"http://www.kmc.org","STATE_ID":"NOT AVAILABLE","ALT_NAME":"NOT AVAILABLE","ST_FIPS":"16","OWNER":"GOVERNMENT - DISTRICT/AUTHORITY","TTL_STAFF":-999,"BEDS":292,"TRAUMA":"LEVEL III","HELIPAD":"Y"}},{"type":"Feature","id":8,"geometry":{"type":"Point","coordinates":[-117.02436610936381,46.416439734972016]},"properties":{"OBJECTID":8,"ID":"0001483501","NAME":"ST. JOSEPH REGIONAL MEDICAL CENTER","ADDRESS":"415 SIXTH STREET","CITY":"LEWISTON","STATE":"ID","ZIP":"83501","ZIP4":"NOT AVAILABLE","TELEPHONE":"(208) 743-2511","TYPE":"GENERAL ACUTE CARE","STATUS":"OPEN","POPULATION":145,"COUNTY":"NEZ PERCE","COUNTYFIPS":"16069","COUNTRY":"USA","LATITUDE":46.41643973500004,"LONGITUDE":-117.02436610899997,"NAICS_CODE":"622110","NAICS_DESC":"GENERAL MEDICAL AND SURGICAL HOSPITALS","SOURCE":"http://healthandwelfare.idaho.gov/portals/0/medical/licensingcertification/alphahospital.pdf","SOURCEDATE":1596844800000,"VAL_METHOD":"IMAGERY","VAL_DATE":1391990400000,"WEBSITE":"http://www.sjrmc.org","STATE_ID":"NOT AVAILABLE","ALT_NAME":"NOT AVAILABLE","ST_FIPS":"16","OWNER":"NON-PROFIT","TTL_STAFF":-999,"BEDS":145,"TRAUMA":"NOT AVAILABLE","HELIPAD":"Y"}},{"type":"Feature","id":9,"geometry":{"type":"Point","coordinates":[-116.35861569879438,43.585946884699347]},"properties":{"OBJECTID":9,"ID":"0155783642","NAME":"VIBRA HOSPITAL OF BOISE","ADDRESS":"2131 SOUTH BONITO WAY","CITY":"MERIDIAN","STATE":"ID","ZIP":"83642","ZIP4":"NOT AVAILABLE","TELEPHONE":"(208) 489-9500","TYPE":"GENERAL ACUTE CARE","STATUS":"CLOSED","POPULATION":60,"COUNTY":"ADA","COUNTYFIPS":"16001","COUNTRY":"USA","LATITUDE":43.585946885000055,"LONGITUDE":-116.35861569899998,"NAICS_CODE":"622110","NAICS_DESC":"GENERAL MEDICAL AND SURGICAL HOSPITALS","SOURCE":"http://healthandwelfare.idaho.gov/portals/0/medical/licensingcertification/alphahospital.pdf","SOURCEDATE":1596844800000,"VAL_METHOD":"IMAGERY/OTHER","VAL_DATE":1432944000000,"WEBSITE":"http://vhboise.com/","STATE_ID":"NOT AVAILABLE","ALT_NAME":"NOT AVAILABLE","ST_FIPS":"16","OWNER":"PROPRIETARY","TTL_STAFF":-999,"BEDS":60,"TRAUMA":"NOT AVAILABLE","HELIPAD":"N"}},{"type":"Feature","id":10,"geometry":{"type":"Point","coordinates":[-112.25033246069292,42.18941980721786]},"properties":{"OBJECTID":10,"ID":"0155883252","NAME":"NELL J. REDFIELD MEMORIAL HOSPITAL","ADDRESS":"150 NORTH 200 WEST","CITY":"MALAD CITY","STATE":"ID","ZIP":"83252","ZIP4":"NOT AVAILABLE","TELEPHONE":"(208) 766-2231","TYPE":"GENERAL ACUTE CARE","STATUS":"OPEN","POPULATION":11,"COUNTY":"ONEIDA","COUNTYFIPS":"16071","COUNTRY":"USA","LATITUDE":42.189419807000036,"LONGITUDE":-112.25033246099997,"NAICS_CODE":"622110","NAICS_DESC":"GENERAL MEDICAL AND SURGICAL HOSPITALS","SOURCE":"http://healthandwelfare.idaho.gov/portals/0/medical/licensingcertification/alphahospital.pdf","SOURCEDATE":1596844800000,"VAL_METHOD":"IMAGERY/OTHER","VAL_DATE":1432944000000,"WEBSITE":"NOT AVAILABLE","STATE_ID":"NOT AVAILABLE","ALT_NAME":"NOT AVAILABLE","ST_FIPS":"16","OWNER":"NOT AVAILABLE","TTL_STAFF":-999,"BEDS":11,"TRAUMA":"NOT AVAILABLE","HELIPAD":"Y"}},{"type":"Feature","id":11,"geometry":{"type":"Point","coordinates":[-116.35030122220626,43.688928821837493]},"properties":{"OBJECTID":11,"ID":"0000000138","NAME":"SAINT ALPHONSUS EAGLE HEALTH PLZ-ER","ADDRESS":"323 E RIVERSIDE DR","CITY":"EAGLE","STATE":"ID","ZIP":"83616","ZIP4":"NOT AVAILABLE","TELEPHONE":"(208) 367-5355","TYPE":"GENERAL ACUTE CARE","STATUS":"OPEN","POPULATION":-999,"COUNTY":"ADA","COUNTYFIPS":"16001","COUNTRY":"USA","LATITUDE":43.688928822000037,"LONGITUDE":-116.35030122199998,"NAICS_CODE":"622110","NAICS_DESC":"GENERAL MEDICAL AND SURGICAL HOSPITALS","SOURCE":"http://healthandwelfare.idaho.gov/portals/0/medical/licensingcertification/alphahospital.pdf","SOURCEDATE":1596844800000,"VAL_METHOD":"IMAGERY/OTHER","VAL_DATE":1432339200000,"WEBSITE":"http://www.saintalphonsus.org/","STATE_ID":"NOT AVAILABLE","ALT_NAME":"NOT AVAILABLE","ST_FIPS":"16","OWNER":"NOT AVAILABLE","TTL_STAFF":-999,"BEDS":-999,"TRAUMA":"NOT AVAILABLE","HELIPAD":"N"}},{"type":"Feature","id":12,"geometry":{"type":"Point","coordinates":[-111.30027387035672,42.316163073077718]},"properties":{"OBJECTID":12,"ID":"0001183254","NAME":"BEAR LAKE MEMORIAL HOSPITAL","ADDRESS":"164 SOUTH FIFTH STREET","CITY":"MONTPELIER","STATE":"ID","ZIP":"83254","ZIP4":"NOT AVAILABLE","TELEPHONE":"(208) 847-1630","TYPE":"GENERAL ACUTE CARE","STATUS":"OPEN","POPULATION":21,"COUNTY":"BEAR LAKE","COUNTYFIPS":"16007","COUNTRY":"USA","LATITUDE":42.316163073000041,"LONGITUDE":-111.30027386999996,"NAICS_CODE":"622110","NAICS_DESC":"GENERAL MEDICAL AND SURGICAL HOSPITALS","SOURCE":"http://healthandwelfare.idaho.gov/portals/0/medical/licensingcertification/alphahospital.pdf","SOURCEDATE":1596844800000,"VAL_METHOD":"IMAGERY","VAL_DATE":1394582400000,"WEBSITE":"http://www.blmhospital.com","STATE_ID":"NOT AVAILABLE","ALT_NAME":"NOT AVAILABLE","ST_FIPS":"16","OWNER":"GOVERNMENT - LOCAL","TTL_STAFF":-999,"BEDS":21,"TRAUMA":"NOT AVAILABLE","HELIPAD":"Y"}},{"type":"Feature","id":13,"geometry":{"type":"Point","coordinates":[-116.92438854729726,47.715455678058646]},"properties":{"OBJECTID":13,"ID":"0005383854","NAME":"NORTHWEST SPECIALTY HOSPITAL","ADDRESS":"1593 EAST POLSTON AVENUE","CITY":"POST FALLS","STATE":"ID","ZIP":"83854","ZIP4":"NOT AVAILABLE","TELEPHONE":"(208) 262-2300","TYPE":"GENERAL ACUTE CARE","STATUS":"OPEN","POPULATION":34,"COUNTY":"KOOTENAI","COUNTYFIPS":"16055","COUNTRY":"USA","LATITUDE":47.715455678000069,"LONGITUDE":-116.92438854699998,"NAICS_CODE":"622110","NAICS_DESC":"GENERAL MEDICAL AND SURGICAL HOSPITALS","SOURCE":"http://healthandwelfare.idaho.gov/portals/0/medical/licensingcertification/alphahospital.pdf","SOURCEDATE":1596844800000,"VAL_METHOD":"IMAGERY","VAL_DATE":1461196800000,"WEBSITE":"http://www.northwestspecialtyhospital.com/","STATE_ID":"NOT AVAILABLE","ALT_NAME":"NOT AVAILABLE","ST_FIPS":"16","OWNER":"PROPRIETARY","TTL_STAFF":-999,"BEDS":34,"TRAUMA":"NOT AVAILABLE","HELIPAD":"N"}},{"type":"Feature","id":14,"geometry":{"type":"Point","coordinates":[-116.29092601438866,43.612619266963755]},"properties":{"OBJECTID":14,"ID":"0005883704","NAME":"TREASURE VALLEY HOSPITAL","ADDRESS":"8800 WEST EMERALD STREET","CITY":"BOISE","STATE":"ID","ZIP":"83704","ZIP4":"NOT AVAILABLE","TELEPHONE":"(208) 373-5000","TYPE":"GENERAL ACUTE CARE","STATUS":"OPEN","POPULATION":10,"COUNTY":"ADA","COUNTYFIPS":"16001","COUNTRY":"USA","LATITUDE":43.612619267000071,"LONGITUDE":-116.29092601399998,"NAICS_CODE":"622110","NAICS_DESC":"GENERAL MEDICAL AND SURGICAL HOSPITALS","SOURCE":"http://healthandwelfare.idaho.gov/portals/0/medical/licensingcertification/alphahospital.pdf","SOURCEDATE":1596844800000,"VAL_METHOD":"IMAGERY","VAL_DATE":1461283200000,"WEBSITE":"http://treasurevalleyhospital.com/","STATE_ID":"NOT AVAILABLE","ALT_NAME":"NOT AVAILABLE","ST_FIPS":"16","OWNER":"PROPRIETARY","TTL_STAFF":-999,"BEDS":10,"TRAUMA":"NOT AVAILABLE","HELIPAD":"N"}},{"type":"Feature","id":15,"geometry":{"type":"Point","coordinates":[-111.61473571212893,42.651490523327368]},"properties":{"OBJECTID":15,"ID":"0001783276","NAME":"CARIBOU MEMORIAL HOSPITAL","ADDRESS":"300 SOUTH THIRD WEST","CITY":"SODA SPRINGS","STATE":"ID","ZIP":"83276","ZIP4":"NOT AVAILABLE","TELEPHONE":"(208) 547-3341","TYPE":"GENERAL ACUTE CARE","STATUS":"OPEN","POPULATION":25,"COUNTY":"CARIBOU","COUNTYFIPS":"16029","COUNTRY":"USA","LATITUDE":42.651490523000064,"LONGITUDE":-111.61473571199997,"NAICS_CODE":"622110","NAICS_DESC":"GENERAL MEDICAL AND SURGICAL HOSPITALS","SOURCE":"http://healthandwelfare.idaho.gov/portals/0/medical/licensingcertification/alphahospital.pdf","SOURCEDATE":1596844800000,"VAL_METHOD":"IMAGERY","VAL_DATE":1391990400000,"WEBSITE":"http://www.cariboumemorial.org","STATE_ID":"NOT AVAILABLE","ALT_NAME":"NOT AVAILABLE","ST_FIPS":"16","OWNER":"GOVERNMENT - LOCAL","TTL_STAFF":-999,"BEDS":25,"TRAUMA":"NOT AVAILABLE","HELIPAD":"Y"}},{"type":"Feature","id":16,"geometry":{"type":"Point","coordinates":[-115.6935962868975,43.138891059913327]},"properties":{"OBJECTID":16,"ID":"0155983647","NAME":"ST LUKE'S ELMORE MEDICAL CENTER","ADDRESS":"895 NORTH 6TH EAST","CITY":"MOUNTAIN HOME","STATE":"ID","ZIP":"83647","ZIP4":"NOT AVAILABLE","TELEPHONE":"(208) 587-8401","TYPE":"CRITICAL ACCESS","STATUS":"OPEN","POPULATION":25,"COUNTY":"ELMORE","COUNTYFIPS":"16039","COUNTRY":"USA","LATITUDE":43.138891060000049,"LONGITUDE":-115.69359628699999,"NAICS_CODE":"622110","NAICS_DESC":"GENERAL MEDICAL AND SURGICAL HOSPITALS","SOURCE":"http://healthandwelfare.idaho.gov/portals/0/medical/licensingcertification/alphahospital.pdf","SOURCEDATE":1596844800000,"VAL_METHOD":"IMAGERY/OTHER","VAL_DATE":1432944000000,"WEBSITE":"https://www.stlukesonline.org/communities-and-locations/facilities/hospitals-and-medical-centers/st-lukes-elmore-medical-center","STATE_ID":"NOT AVAILABLE","ALT_NAME":"NOT AVAILABLE","ST_FIPS":"16","OWNER":"NON-PROFIT","TTL_STAFF":-999,"BEDS":25,"TRAUMA":"NOT AVAILABLE","HELIPAD":"Y"}},{"type":"Feature","id":17,"geometry":{"type":"Point","coordinates":[-111.10822205671967,43.726983384098347]},"properties":{"OBJECTID":17,"ID":"0003983422","NAME":"TETON VALLEY HOSPITAL","ADDRESS":"120 EAST HOWARD","CITY":"DRIGGS","STATE":"ID","ZIP":"83422","ZIP4":"NOT AVAILABLE","TELEPHONE":"(208) 354-2383","TYPE":"GENERAL ACUTE CARE","STATUS":"OPEN","POPULATION":13,"COUNTY":"TETON","COUNTYFIPS":"16081","COUNTRY":"USA","LATITUDE":43.72698338400005,"LONGITUDE":-111.10822205699998,"NAICS_CODE":"622110","NAICS_DESC":"GENERAL MEDICAL AND SURGICAL HOSPITALS","SOURCE":"http://healthandwelfare.idaho.gov/portals/0/medical/licensingcertification/alphahospital.pdf","SOURCEDATE":1596844800000,"VAL_METHOD":"IMAGERY","VAL_DATE":1391990400000,"WEBSITE":"http://www.tvhcare.org","STATE_ID":"NOT AVAILABLE","ALT_NAME":"NOT AVAILABLE","ST_FIPS":"16","OWNER":"GOVERNMENT - LOCAL","TTL_STAFF":-999,"BEDS":13,"TRAUMA":"NOT AVAILABLE","HELIPAD":"Y"}},{"type":"Feature","id":18,"geometry":{"type":"Point","coordinates":[-116.26691725203315,43.607072743228407]},"properties":{"OBJECTID":18,"ID":"0000683704","NAME":"INTERMOUNTAIN HOSPITAL","ADDRESS":"303 NORTH ALLUMBAUGH STREET","CITY":"BOISE","STATE":"ID","ZIP":"83704","ZIP4":"NOT AVAILABLE","TELEPHONE":"(208) 377-8400","TYPE":"GENERAL ACUTE CARE","STATUS":"OPEN","POPULATION":155,"COUNTY":"ADA","COUNTYFIPS":"16001","COUNTRY":"USA","LATITUDE":43.60707274300006,"LONGITUDE":-116.26691725199998,"NAICS_CODE":"622110","NAICS_DESC":"GENERAL MEDICAL AND SURGICAL HOSPITALS","SOURCE":"http://healthandwelfare.idaho.gov/portals/0/medical/licensingcertification/alphahospital.pdf","SOURCEDATE":1596844800000,"VAL_METHOD":"IMAGERY","VAL_DATE":1384214400000,"WEBSITE":"http://www.intermountainhospital.com","STATE_ID":"NOT AVAILABLE","ALT_NAME":"NOT AVAILABLE","ST_FIPS":"16","OWNER":"PROPRIETARY","TTL_STAFF":-999,"BEDS":155,"TRAUMA":"NOT AVAILABLE","HELIPAD":"N"}},{"type":"Feature","id":19,"geometry":{"type":"Point","coordinates":[-114.70965745534637,42.920995448690412]},"properties":{"OBJECTID":19,"ID":"0002883330","NAME":"NORTH CANYON MEDICAL CENTER","ADDRESS":"267 NORTH CANYON DRIVE","CITY":"GOODING","STATE":"ID","ZIP":"83330","ZIP4":"NOT AVAILABLE","TELEPHONE":"(208) 934-4433","TYPE":"GENERAL ACUTE CARE","STATUS":"OPEN","POPULATION":18,"COUNTY":"GOODING","COUNTYFIPS":"16047","COUNTRY":"USA","LATITUDE":42.920995449000031,"LONGITUDE":-114.70965745499996,"NAICS_CODE":"622110","NAICS_DESC":"GENERAL MEDICAL AND SURGICAL HOSPITALS","SOURCE":"http://healthandwelfare.idaho.gov/portals/0/medical/licensingcertification/alphahospital.pdf","SOURCEDATE":1596844800000,"VAL_METHOD":"IMAGERY","VAL_DATE":1391990400000,"WEBSITE":"http://www.goodinghospital.org","STATE_ID":"NOT AVAILABLE","ALT_NAME":"NOT AVAILABLE","ST_FIPS":"16","OWNER":"NON-PROFIT","TTL_STAFF":-999,"BEDS":18,"TRAUMA":"NOT AVAILABLE","HELIPAD":"Y"}},{"type":"Feature","id":20,"geometry":{"type":"Point","coordinates":[-116.48490294193412,43.879979220216093]},"properties":{"OBJECTID":20,"ID":"0004183617","NAME":"VALOR HEALTH","ADDRESS":"1202 EAST LOCUST STREET","CITY":"EMMETT","STATE":"ID","ZIP":"83617","ZIP4":"NOT AVAILABLE","TELEPHONE":"(208) 365-3561","TYPE":"GENERAL ACUTE CARE","STATUS":"OPEN","POPULATION":16,"COUNTY":"GEM","COUNTYFIPS":"16045","COUNTRY":"USA","LATITUDE":43.879979220000052,"LONGITUDE":-116.48490294199996,"NAICS_CODE":"622110","NAICS_DESC":"GENERAL MEDICAL AND SURGICAL HOSPITALS","SOURCE":"http://healthandwelfare.idaho.gov/portals/0/medical/licensingcertification/alphahospital.pdf","SOURCEDATE":1596844800000,"VAL_METHOD":"IMAGERY","VAL_DATE":1394582400000,"WEBSITE":"http://www.wkmh.org","STATE_ID":"NOT AVAILABLE","ALT_NAME":"NOT AVAILABLE","ST_FIPS":"16","OWNER":"GOVERNMENT - LOCAL","TTL_STAFF":-999,"BEDS":16,"TRAUMA":"NOT AVAILABLE","HELIPAD":"Y"}},{"type":"Feature","id":21,"geometry":{"type":"Point","coordinates":[-111.87297675325431,42.097650625692559]},"properties":{"OBJECTID":21,"ID":"0002283263","NAME":"FRANKLIN COUNTY MEDICAL CENTER","ADDRESS":"44 NORTH FIRST EAST STREET","CITY":"PRESTON","STATE":"ID","ZIP":"83263","ZIP4":"NOT AVAILABLE","TELEPHONE":"(208) 852-0137","TYPE":"GENERAL ACUTE CARE","STATUS":"OPEN","POPULATION":20,"COUNTY":"FRANKLIN","COUNTYFIPS":"16041","COUNTRY":"USA","LATITUDE":42.097650626000075,"LONGITUDE":-111.87297675299999,"NAICS_CODE":"622110","NAICS_DESC":"GENERAL MEDICAL AND SURGICAL HOSPITALS","SOURCE":"http://healthandwelfare.idaho.gov/portals/0/medical/licensingcertification/alphahospital.pdf","SOURCEDATE":1596844800000,"VAL_METHOD":"IMAGERY","VAL_DATE":1391990400000,"WEBSITE":"http://www.fcmc.org","STATE_ID":"NOT AVAILABLE","ALT_NAME":"NOT AVAILABLE","ST_FIPS":"16","OWNER":"GOVERNMENT - LOCAL","TTL_STAFF":-999,"BEDS":20,"TRAUMA":"NOT AVAILABLE","HELIPAD":"Y"}},{"type":"Feature","id":22,"geometry":{"type":"Point","coordinates":[-111.99165407656805,43.469975908729829]},"properties":{"OBJECTID":22,"ID":"0000483403","NAME":"EASTERN IDAHO REGIONAL MEDICAL CENTER","ADDRESS":"3100 CHANNING WAY","CITY":"IDAHO FALLS","STATE":"ID","ZIP":"83404","ZIP4":"NOT AVAILABLE","TELEPHONE":"(208) 529-6111","TYPE":"GENERAL ACUTE CARE","STATUS":"OPEN","POPULATION":289,"COUNTY":"BONNEVILLE","COUNTYFIPS":"16019","COUNTRY":"USA","LATITUDE":43.469975909000027,"LONGITUDE":-111.99165407699996,"NAICS_CODE":"622110","NAICS_DESC":"GENERAL MEDICAL AND SURGICAL HOSPITALS","SOURCE":"http://healthandwelfare.idaho.gov/portals/0/medical/licensingcertification/alphahospital.pdf","SOURCEDATE":1596844800000,"VAL_METHOD":"IMAGERY","VAL_DATE":1394582400000,"WEBSITE":"http://www.eirmc.com","STATE_ID":"NOT AVAILABLE","ALT_NAME":"NOT AVAILABLE","ST_FIPS":"16","OWNER":"PROPRIETARY","TTL_STAFF":-999,"BEDS":289,"TRAUMA":"LEVEL II","HELIPAD":"Y"}},{"type":"Feature","id":23,"geometry":{"type":"Point","coordinates":[-116.26443081773463,43.6033497052901]},"properties":{"OBJECTID":23,"ID":"0001383709","NAME":"SOUTHWEST IDAHO ADVANCED CARE HOSPITAL","ADDRESS":"6651 W. FRANKLIN ROAD","CITY":"BOISE","STATE":"ID","ZIP":"83709","ZIP4":"NOT AVAILABLE","TELEPHONE":"(208) 685-2400","TYPE":"GENERAL ACUTE CARE","STATUS":"CLOSED","POPULATION":40,"COUNTY":"ADA","COUNTYFIPS":"16001","COUNTRY":"USA","LATITUDE":43.603349705000028,"LONGITUDE":-116.26443081799999,"NAICS_CODE":"622110","NAICS_DESC":"GENERAL MEDICAL AND SURGICAL HOSPITALS","SOURCE":"http://healthandwelfare.idaho.gov/portals/0/medical/licensingcertification/alphahospital.pdf","SOURCEDATE":1596844800000,"VAL_METHOD":"IMAGERY","VAL_DATE":1384214400000,"WEBSITE":"http://siach.ernesthealth.com/","STATE_ID":"NOT AVAILABLE","ALT_NAME":"NOT AVAILABLE","ST_FIPS":"16","OWNER":"PROPRIETARY","TTL_STAFF":-999,"BEDS":40,"TRAUMA":"NOT AVAILABLE","HELIPAD":"N"}},{"type":"Feature","id":24,"geometry":{"type":"Point","coordinates":[-112.84863066099358,42.781448579792986]},"properties":{"OBJECTID":24,"ID":"0003283211","NAME":"POWER COUNTY HOSPITAL DISTRICT","ADDRESS":"510 ROOSEVELT STREET","CITY":"AMERICAN FALLS","STATE":"ID","ZIP":"83211","ZIP4":"NOT AVAILABLE","TELEPHONE":"(208) 226-3200","TYPE":"GENERAL ACUTE CARE","STATUS":"OPEN","POPULATION":10,"COUNTY":"POWER","COUNTYFIPS":"16077","COUNTRY":"USA","LATITUDE":42.781448580000074,"LONGITUDE":-112.84863066099996,"NAICS_CODE":"622110","NAICS_DESC":"GENERAL MEDICAL AND SURGICAL HOSPITALS","SOURCE":"http://healthandwelfare.idaho.gov/portals/0/medical/licensingcertification/alphahospital.pdf","SOURCEDATE":1596844800000,"VAL_METHOD":"IMAGERY","VAL_DATE":1384214400000,"WEBSITE":"http://www.pchd.net","STATE_ID":"NOT AVAILABLE","ALT_NAME":"NOT AVAILABLE","ST_FIPS":"16","OWNER":"GOVERNMENT - FEDERAL","TTL_STAFF":-999,"BEDS":10,"TRAUMA":"NOT AVAILABLE","HELIPAD":"Y"}},{"type":"Feature","id":25,"geometry":{"type":"Point","coordinates":[-116.6942759280474,43.654327933249348]},"properties":{"OBJECTID":25,"ID":"0002383605","NAME":"WEST VALLEY MEDICAL CENTER","ADDRESS":"1717 ARLINGTON AVENUE","CITY":"CALDWELL","STATE":"ID","ZIP":"83605","ZIP4":"NOT AVAILABLE","TELEPHONE":"(208) 459-4641","TYPE":"GENERAL ACUTE CARE","STATUS":"OPEN","POPULATION":150,"COUNTY":"CANYON","COUNTYFIPS":"16027","COUNTRY":"USA","LATITUDE":43.654327933000047,"LONGITUDE":-116.69427592799997,"NAICS_CODE":"622110","NAICS_DESC":"GENERAL MEDICAL AND SURGICAL HOSPITALS","SOURCE":"http://healthandwelfare.idaho.gov/portals/0/medical/licensingcertification/alphahospital.pdf","SOURCEDATE":1596844800000,"VAL_METHOD":"IMAGERY","VAL_DATE":1394582400000,"WEBSITE":"http://www.westvalleymedctr.com","STATE_ID":"NOT AVAILABLE","ALT_NAME":"NOT AVAILABLE","ST_FIPS":"16","OWNER":"PROPRIETARY","TTL_STAFF":-999,"BEDS":150,"TRAUMA":"NOT AVAILABLE","HELIPAD":"Y"}},{"type":"Feature","id":26,"geometry":{"type":"Point","coordinates":[-111.77088665008354,43.825779792043079]},"properties":{"OBJECTID":26,"ID":"0000883440","NAME":"MADISON MEMORIAL HOSPITAL","ADDRESS":"450 EAST MAIN STREET","CITY":"REXBURG","STATE":"ID","ZIP":"83440","ZIP4":"NOT AVAILABLE","TELEPHONE":"(208) 356-3691","TYPE":"GENERAL ACUTE CARE","STATUS":"OPEN","POPULATION":69,"COUNTY":"MADISON","COUNTYFIPS":"16065","COUNTRY":"USA","LATITUDE":43.825779792000048,"LONGITUDE":-111.77088664999997,"NAICS_CODE":"622110","NAICS_DESC":"GENERAL MEDICAL AND SURGICAL HOSPITALS","SOURCE":"http://healthandwelfare.idaho.gov/portals/0/medical/licensingcertification/alphahospital.pdf","SOURCEDATE":1596844800000,"VAL_METHOD":"IMAGERY","VAL_DATE":1391990400000,"WEBSITE":"http://www.madisonhospital.org","STATE_ID":"NOT AVAILABLE","ALT_NAME":"NOT AVAILABLE","ST_FIPS":"16","OWNER":"GOVERNMENT - LOCAL","TTL_STAFF":-999,"BEDS":69,"TRAUMA":"NOT AVAILABLE","HELIPAD":"Y"}},{"type":"Feature","id":27,"geometry":{"type":"Point","coordinates":[-116.35329953901156,46.050380155054434]},"properties":{"OBJECTID":27,"ID":"0004883522","NAME":"ST MARY'S HOSPITAL","ADDRESS":"701 LEWISTON ST","CITY":"COTTONWOOD","STATE":"ID","ZIP":"83522","ZIP4":"NOT AVAILABLE","TELEPHONE":"(208) 962-3251","TYPE":"CRITICAL ACCESS","STATUS":"OPEN","POPULATION":25,"COUNTY":"IDAHO","COUNTYFIPS":"16049","COUNTRY":"USA","LATITUDE":46.050380155000028,"LONGITUDE":-116.35329953899998,"NAICS_CODE":"622110","NAICS_DESC":"GENERAL MEDICAL AND SURGICAL HOSPITALS","SOURCE":"http://healthandwelfare.idaho.gov/portals/0/medical/licensingcertification/alphahospital.pdf","SOURCEDATE":1596844800000,"VAL_METHOD":"IMAGERY","VAL_DATE":1391990400000,"WEBSITE":"www.smh-cvhc.org","STATE_ID":"NOT AVAILABLE","ALT_NAME":"NOT AVAILABLE","ST_FIPS":"16","OWNER":"NON-PROFIT","TTL_STAFF":-999,"BEDS":25,"TRAUMA":"NOT AVAILABLE","HELIPAD":"Y"}},{"type":"Feature","id":28,"geometry":{"type":"Point","coordinates":[-116.96244125729274,44.248724010126836]},"properties":{"OBJECTID":28,"ID":"0004283672","NAME":"WEISER MEMORIAL HOSPITAL","ADDRESS":"645 EAST 5TH STREET","CITY":"WEISER","STATE":"ID","ZIP":"83672","ZIP4":"NOT AVAILABLE","TELEPHONE":"(208) 549-0370","TYPE":"CRITICAL ACCESS","STATUS":"OPEN","POPULATION":25,"COUNTY":"WASHINGTON","COUNTYFIPS":"16087","COUNTRY":"USA","LATITUDE":44.248724010000046,"LONGITUDE":-116.96244125699997,"NAICS_CODE":"622110","NAICS_DESC":"GENERAL MEDICAL AND SURGICAL HOSPITALS","SOURCE":"http://healthandwelfare.idaho.gov/portals/0/medical/licensingcertification/alphahospital.pdf","SOURCEDATE":1596844800000,"VAL_METHOD":"IMAGERY","VAL_DATE":1384214400000,"WEBSITE":"www.weisermemorialhospital.org","STATE_ID":"NOT AVAILABLE","ALT_NAME":"NOT AVAILABLE","ST_FIPS":"16","OWNER":"GOVERNMENT - DISTRICT/AUTHORITY","TTL_STAFF":-999,"BEDS":25,"TRAUMA":"NOT AVAILABLE","HELIPAD":"Y"}},{"type":"Feature","id":29,"geometry":{"type":"Point","coordinates":[-114.49633363190112,42.590315413709007]},"properties":{"OBJECTID":29,"ID":"0003683301","NAME":"ST LUKE'S MAGIC VALLEY RMC","ADDRESS":"801 POLE LINE RD W","CITY":"TWIN FALLS","STATE":"ID","ZIP":"83301","ZIP4":"NOT AVAILABLE","TELEPHONE":"(208) 814-1000","TYPE":"GENERAL ACUTE CARE","STATUS":"OPEN","POPULATION":224,"COUNTY":"TWIN FALLS","COUNTYFIPS":"16083","COUNTRY":"USA","LATITUDE":42.590315414000031,"LONGITUDE":-114.49633363199996,"NAICS_CODE":"622110","NAICS_DESC":"GENERAL MEDICAL AND SURGICAL HOSPITALS","SOURCE":"http://healthandwelfare.idaho.gov/portals/0/medical/licensingcertification/alphahospital.pdf","SOURCEDATE":1596844800000,"VAL_METHOD":"IMAGERY","VAL_DATE":1394582400000,"WEBSITE":"http://www.stlukesonline.org","STATE_ID":"NOT AVAILABLE","ALT_NAME":"NOT AVAILABLE","ST_FIPS":"16","OWNER":"NON-PROFIT","TTL_STAFF":-999,"BEDS":224,"TRAUMA":"NOT AVAILABLE","HELIPAD":"Y"}},{"type":"Feature","id":30,"geometry":{"type":"Point","coordinates":[-112.34683131388968,43.193239723159351]},"properties":{"OBJECTID":30,"ID":"0001583221","NAME":"BINGHAM MEMORIAL HOSPITAL","ADDRESS":"98 POPLAR STREET","CITY":"BLACKFOOT","STATE":"ID","ZIP":"83221","ZIP4":"NOT AVAILABLE","TELEPHONE":"(208) 785-4100","TYPE":"GENERAL ACUTE CARE","STATUS":"OPEN","POPULATION":25,"COUNTY":"BINGHAM","COUNTYFIPS":"16011","COUNTRY":"USA","LATITUDE":43.193239723000033,"LONGITUDE":-112.34683131399999,"NAICS_CODE":"622110","NAICS_DESC":"GENERAL MEDICAL AND SURGICAL HOSPITALS","SOURCE":"http://healthandwelfare.idaho.gov/portals/0/medical/licensingcertification/alphahospital.pdf","SOURCEDATE":1596844800000,"VAL_METHOD":"IMAGERY","VAL_DATE":1391990400000,"WEBSITE":"http://www.binghammemorial.org","STATE_ID":"NOT AVAILABLE","ALT_NAME":"NOT AVAILABLE","ST_FIPS":"16","OWNER":"NON-PROFIT","TTL_STAFF":-999,"BEDS":25,"TRAUMA":"NOT AVAILABLE","HELIPAD":"Y"}},{"type":"Feature","id":31,"geometry":{"type":"Point","coordinates":[-116.90386569560506,47.713456930013024]},"properties":{"OBJECTID":31,"ID":"0002983854","NAME":"NORTHERN IDAHO ADVANCED CARE HOSPITAL","ADDRESS":"600 N. CECIL ROAD","CITY":"POST FALLS","STATE":"ID","ZIP":"83854","ZIP4":"NOT AVAILABLE","TELEPHONE":"(208) 262-2800","TYPE":"LONG TERM CARE","STATUS":"OPEN","POPULATION":40,"COUNTY":"KOOTENAI","COUNTYFIPS":"16055","COUNTRY":"USA","LATITUDE":47.713456930000063,"LONGITUDE":-116.90386569599997,"NAICS_CODE":"622110","NAICS_DESC":"GENERAL MEDICAL AND SURGICAL HOSPITALS","SOURCE":"http://healthandwelfare.idaho.gov/portals/0/medical/licensingcertification/alphahospital.pdf","SOURCEDATE":1596844800000,"VAL_METHOD":"IMAGERY","VAL_DATE":1391990400000,"WEBSITE":"http://www.niach.ernesthealth.com","STATE_ID":"NOT AVAILABLE","ALT_NAME":"NOT AVAILABLE","ST_FIPS":"16","OWNER":"PROPRIETARY","TTL_STAFF":-999,"BEDS":40,"TRAUMA":"NOT AVAILABLE","HELIPAD":"N"}},{"type":"Feature","id":32,"geometry":{"type":"Point","coordinates":[-116.90200971604095,47.712942966237406]},"properties":{"OBJECTID":32,"ID":"0005483854","NAME":"REHABILITATION HOSPITAL OF THE NORTHWEST","ADDRESS":"3372 E JENALAN AVE","CITY":"POST FALLS","STATE":"ID","ZIP":"83854","ZIP4":"NOT AVAILABLE","TELEPHONE":"(208) 262-8700","TYPE":"REHABILITATION","STATUS":"OPEN","POPULATION":30,"COUNTY":"KOOTENAI","COUNTYFIPS":"16055","COUNTRY":"USA","LATITUDE":47.712942966000071,"LONGITUDE":-116.90200971599995,"NAICS_CODE":"622110","NAICS_DESC":"GENERAL MEDICAL AND SURGICAL HOSPITALS","SOURCE":"http://healthandwelfare.idaho.gov/portals/0/medical/licensingcertification/alphahospital.pdf","SOURCEDATE":1596844800000,"VAL_METHOD":"IMAGERY/OTHER","VAL_DATE":1461196800000,"WEBSITE":"http://rhn.ernesthealth.com/","STATE_ID":"NOT AVAILABLE","ALT_NAME":"NOT AVAILABLE","ST_FIPS":"16","OWNER":"PROPRIETARY","TTL_STAFF":-999,"BEDS":30,"TRAUMA":"NOT AVAILABLE","HELIPAD":"N"}},{"type":"Feature","id":33,"geometry":{"type":"Point","coordinates":[-116.32108154488992,48.702301081963292]},"properties":{"OBJECTID":33,"ID":"0001683805","NAME":"BOUNDARY COMMUNITY HOSPITAL","ADDRESS":"6640 KANIKSU STREET","CITY":"BONNERS FERRY","STATE":"ID","ZIP":"83805","ZIP4":"NOT AVAILABLE","TELEPHONE":"(208) 267-3141","TYPE":"GENERAL ACUTE CARE","STATUS":"OPEN","POPULATION":20,"COUNTY":"BOUNDARY","COUNTYFIPS":"16021","COUNTRY":"USA","LATITUDE":48.702301082000076,"LONGITUDE":-116.32108154499997,"NAICS_CODE":"622110","NAICS_DESC":"GENERAL MEDICAL AND SURGICAL HOSPITALS","SOURCE":"http://healthandwelfare.idaho.gov/portals/0/medical/licensingcertification/alphahospital.pdf","SOURCEDATE":1596844800000,"VAL_METHOD":"IMAGERY","VAL_DATE":1391990400000,"WEBSITE":"http://www.boundaryhospital.org","STATE_ID":"NOT AVAILABLE","ALT_NAME":"NOT AVAILABLE","ST_FIPS":"16","OWNER":"GOVERNMENT - LOCAL","TTL_STAFF":-999,"BEDS":20,"TRAUMA":"NOT AVAILABLE","HELIPAD":"Y"}},{"type":"Feature","id":34,"geometry":{"type":"Point","coordinates":[-113.2952328718528,43.639574811730334]},"properties":{"OBJECTID":34,"ID":"0002683213","NAME":"LOST RIVERS MEDICAL CENTER","ADDRESS":"551 HIGHLAND DRIVE","CITY":"ARCO","STATE":"ID","ZIP":"83213","ZIP4":"NOT AVAILABLE","TELEPHONE":"(208) 527-8206","TYPE":"GENERAL ACUTE CARE","STATUS":"OPEN","POPULATION":14,"COUNTY":"BUTTE","COUNTYFIPS":"16023","COUNTRY":"USA","LATITUDE":43.639574812000035,"LONGITUDE":-113.29523287199999,"NAICS_CODE":"622110","NAICS_DESC":"GENERAL MEDICAL AND SURGICAL HOSPITALS","SOURCE":"http://healthandwelfare.idaho.gov/portals/0/medical/licensingcertification/alphahospital.pdf","SOURCEDATE":1596844800000,"VAL_METHOD":"IMAGERY","VAL_DATE":1384214400000,"WEBSITE":"http://www.lostrivershospital.com","STATE_ID":"NOT AVAILABLE","ALT_NAME":"NOT AVAILABLE","ST_FIPS":"16","OWNER":"GOVERNMENT - DISTRICT/AUTHORITY","TTL_STAFF":-999,"BEDS":14,"TRAUMA":"NOT AVAILABLE","HELIPAD":"Y"}},{"type":"Feature","id":35,"geometry":{"type":"Point","coordinates":[-113.78177749412909,42.534871047279616]},"properties":{"OBJECTID":35,"ID":"0001883318","NAME":"CASSIA REGIONAL HOSPITAL","ADDRESS":"1501 HILAND AVENUE","CITY":"BURLEY","STATE":"ID","ZIP":"83318","ZIP4":"NOT AVAILABLE","TELEPHONE":"(208) 678-4444","TYPE":"GENERAL ACUTE CARE","STATUS":"OPEN","POPULATION":25,"COUNTY":"CASSIA","COUNTYFIPS":"16031","COUNTRY":"USA","LATITUDE":42.534871047000081,"LONGITUDE":-113.78177749399998,"NAICS_CODE":"622110","NAICS_DESC":"GENERAL MEDICAL AND SURGICAL HOSPITALS","SOURCE":"http://healthandwelfare.idaho.gov/portals/0/medical/licensingcertification/alphahospital.pdf","SOURCEDATE":1596844800000,"VAL_METHOD":"IMAGERY","VAL_DATE":1391990400000,"WEBSITE":"http://www.cassiaregional.org","STATE_ID":"NOT AVAILABLE","ALT_NAME":"NOT AVAILABLE","ST_FIPS":"16","OWNER":"NON-PROFIT","TTL_STAFF":-999,"BEDS":25,"TRAUMA":"NOT AVAILABLE","HELIPAD":"Y"}},{"type":"Feature","id":36,"geometry":{"type":"Point","coordinates":[-113.6860966818643,42.620397285733425]},"properties":{"OBJECTID":36,"ID":"0002783350","NAME":"MINIDOKA MEMORIAL HOSPITAL","ADDRESS":"1224 8TH STREET","CITY":"RUPERT","STATE":"ID","ZIP":"83350","ZIP4":"NOT AVAILABLE","TELEPHONE":"(208) 436-0481","TYPE":"GENERAL ACUTE CARE","STATUS":"OPEN","POPULATION":25,"COUNTY":"MINIDOKA","COUNTYFIPS":"16067","COUNTRY":"USA","LATITUDE":42.62039728600007,"LONGITUDE":-113.68609668199997,"NAICS_CODE":"622110","NAICS_DESC":"GENERAL MEDICAL AND SURGICAL HOSPITALS","SOURCE":"http://healthandwelfare.idaho.gov/portals/0/medical/licensingcertification/alphahospital.pdf","SOURCEDATE":1596844800000,"VAL_METHOD":"IMAGERY","VAL_DATE":1394582400000,"WEBSITE":"http://www.minidokamemorial.com","STATE_ID":"NOT AVAILABLE","ALT_NAME":"NOT AVAILABLE","ST_FIPS":"16","OWNER":"GOVERNMENT - LOCAL","TTL_STAFF":-999,"BEDS":25,"TRAUMA":"NOT AVAILABLE","HELIPAD":"Y"}},{"type":"Feature","id":37,"geometry":{"type":"Point","coordinates":[-116.19027670203414,43.621216645896197]},"properties":{"OBJECTID":37,"ID":"0002183702","NAME":"BOISE VA MEDICAL CENTER","ADDRESS":"500 FORT STREET","CITY":"BOISE","STATE":"ID","ZIP":"83702","ZIP4":"NOT AVAILABLE","TELEPHONE":"(208) 422-1000","TYPE":"MILITARY","STATUS":"OPEN","POPULATION":85,"COUNTY":"ADA","COUNTYFIPS":"16001","COUNTRY":"USA","LATITUDE":43.62121664600005,"LONGITUDE":-116.19027670199995,"NAICS_CODE":"622110","NAICS_DESC":"GENERAL MEDICAL AND SURGICAL HOSPITALS","SOURCE":"https://www.va.gov/directory/guide/allstate.asp","SOURCEDATE":1600992000000,"VAL_METHOD":"IMAGERY","VAL_DATE":1384214400000,"WEBSITE":"http://www.boise.va.gov/","STATE_ID":"NOT AVAILABLE","ALT_NAME":"NOT AVAILABLE","ST_FIPS":"16","OWNER":"GOVERNMENT - FEDERAL","TTL_STAFF":-999,"BEDS":85,"TRAUMA":"NOT AVAILABLE","HELIPAD":"N"}},{"type":"Feature","id":38,"geometry":{"type":"Point","coordinates":[-114.51921422973584,42.730068578229073]},"properties":{"OBJECTID":38,"ID":"0003583338","NAME":"ST. LUKE'S JEROME","ADDRESS":"709 NORTH LINCOLN STREET","CITY":"JEROME","STATE":"ID","ZIP":"83338","ZIP4":"NOT AVAILABLE","TELEPHONE":"(208) 324-4301","TYPE":"GENERAL ACUTE CARE","STATUS":"OPEN","POPULATION":25,"COUNTY":"JEROME","COUNTYFIPS":"16053","COUNTRY":"USA","LATITUDE":42.730068578000044,"LONGITUDE":-114.51921422999999,"NAICS_CODE":"622110","NAICS_DESC":"GENERAL MEDICAL AND SURGICAL HOSPITALS","SOURCE":"http://healthandwelfare.idaho.gov/portals/0/medical/licensingcertification/alphahospital.pdf","SOURCEDATE":1596844800000,"VAL_METHOD":"IMAGERY","VAL_DATE":1394582400000,"WEBSITE":"http://www.stlukesonline.org/jerome/","STATE_ID":"NOT AVAILABLE","ALT_NAME":"NOT AVAILABLE","ST_FIPS":"16","OWNER":"NON-PROFIT","TTL_STAFF":-999,"BEDS":25,"TRAUMA":"NOT AVAILABLE","HELIPAD":"N"}},{"type":"Feature","id":39,"geometry":{"type":"Point","coordinates":[-112.33471442501079,43.18743022919945]},"properties":{"OBJECTID":39,"ID":"0002583221","NAME":"IDAHO STATE HOSPITAL SOUTH","ADDRESS":"700 EAST ALICE STREET","CITY":"BLACKFOOT","STATE":"ID","ZIP":"83221","ZIP4":"NOT AVAILABLE","TELEPHONE":"(208) 785-1200","TYPE":"PSYCHIATRIC","STATUS":"OPEN","POPULATION":120,"COUNTY":"BINGHAM","COUNTYFIPS":"16011","COUNTRY":"USA","LATITUDE":43.187430229000029,"LONGITUDE":-112.33471442499996,"NAICS_CODE":"622110","NAICS_DESC":"GENERAL MEDICAL AND SURGICAL HOSPITALS","SOURCE":"http://healthandwelfare.idaho.gov/portals/0/medical/licensingcertification/alphahospital.pdf","SOURCEDATE":1596844800000,"VAL_METHOD":"IMAGERY","VAL_DATE":1391990400000,"WEBSITE":"http://healthandwelfare.idaho.gov","STATE_ID":"NOT AVAILABLE","ALT_NAME":"NOT AVAILABLE","ST_FIPS":"16","OWNER":"GOVERNMENT - STATE","TTL_STAFF":-999,"BEDS":120,"TRAUMA":"NOT AVAILABLE","HELIPAD":"N"}},{"type":"Feature","id":40,"geometry":{"type":"Point","coordinates":[-116.2597694947596,46.486929154937648]},"properties":{"OBJECTID":40,"ID":"0000283544","NAME":"CLEARWATER VALLEY HOSPITAL AND CLINICS","ADDRESS":"301 CEDAR","CITY":"OROFINO","STATE":"ID","ZIP":"83544","ZIP4":"NOT AVAILABLE","TELEPHONE":"(208) 476-4555","TYPE":"GENERAL ACUTE CARE","STATUS":"OPEN","POPULATION":23,"COUNTY":"CLEARWATER","COUNTYFIPS":"16035","COUNTRY":"USA","LATITUDE":46.486929155000041,"LONGITUDE":-116.25976949499994,"NAICS_CODE":"622110","NAICS_DESC":"GENERAL MEDICAL AND SURGICAL HOSPITALS","SOURCE":"http://healthandwelfare.idaho.gov/portals/0/medical/licensingcertification/alphahospital.pdf","SOURCEDATE":1596844800000,"VAL_METHOD":"IMAGERY","VAL_DATE":1391990400000,"WEBSITE":"http://www.smh-cvhc.org","STATE_ID":"NOT AVAILABLE","ALT_NAME":"NOT AVAILABLE","ST_FIPS":"16","OWNER":"NON-PROFIT","TTL_STAFF":-999,"BEDS":23,"TRAUMA":"NOT AVAILABLE","HELIPAD":"Y"}},{"type":"Feature","id":41,"geometry":{"type":"Point","coordinates":[-116.26038952724009,46.491756730820001]},"properties":{"OBJECTID":41,"ID":"0000583544","NAME":"IDAHO STATE HOSPITAL NORTH","ADDRESS":"300 HOSPITAL DRIVE","CITY":"OROFINO","STATE":"ID","ZIP":"83544","ZIP4":"NOT AVAILABLE","TELEPHONE":"(208) 476-4511","TYPE":"PSYCHIATRIC","STATUS":"OPEN","POPULATION":60,"COUNTY":"CLEARWATER","COUNTYFIPS":"16035","COUNTRY":"USA","LATITUDE":46.491756731000066,"LONGITUDE":-116.26038952699997,"NAICS_CODE":"622110","NAICS_DESC":"GENERAL MEDICAL AND SURGICAL HOSPITALS","SOURCE":"http://healthandwelfare.idaho.gov/portals/0/medical/licensingcertification/alphahospital.pdf","SOURCEDATE":1596844800000,"VAL_METHOD":"IMAGERY","VAL_DATE":1391990400000,"WEBSITE":"http://healthandwelfare.idaho.gov","STATE_ID":"NOT AVAILABLE","ALT_NAME":"NOT AVAILABLE","ST_FIPS":"16","OWNER":"GOVERNMENT - STATE","TTL_STAFF":-999,"BEDS":60,"TRAUMA":"NOT AVAILABLE","HELIPAD":"N"}},{"type":"Feature","id":42,"geometry":{"type":"Point","coordinates":[-117.00054734608068,46.728226458194975]},"properties":{"OBJECTID":42,"ID":"0002483843","NAME":"GRITMAN MEDICAL CENTER","ADDRESS":"700 SOUTH MAIN STREET","CITY":"MOSCOW","STATE":"ID","ZIP":"83843","ZIP4":"NOT AVAILABLE","TELEPHONE":"(208) 882-4511","TYPE":"GENERAL ACUTE CARE","STATUS":"OPEN","POPULATION":25,"COUNTY":"LATAH","COUNTYFIPS":"16057","COUNTRY":"USA","LATITUDE":46.728226458000051,"LONGITUDE":-117.00054734599996,"NAICS_CODE":"622110","NAICS_DESC":"GENERAL MEDICAL AND SURGICAL HOSPITALS","SOURCE":"http://healthandwelfare.idaho.gov/portals/0/medical/licensingcertification/alphahospital.pdf","SOURCEDATE":1596844800000,"VAL_METHOD":"IMAGERY","VAL_DATE":1394582400000,"WEBSITE":"http://www.gritman.org","STATE_ID":"NOT AVAILABLE","ALT_NAME":"NOT AVAILABLE","ST_FIPS":"16","OWNER":"NON-PROFIT","TTL_STAFF":-999,"BEDS":25,"TRAUMA":"NOT AVAILABLE","HELIPAD":"Y"}},{"type":"Feature","id":43,"geometry":{"type":"Point","coordinates":[-116.1306130963828,47.546398266828852]},"properties":{"OBJECTID":43,"ID":"0003483837","NAME":"SHOSHONE MEDICAL CENTER","ADDRESS":"25 JACOB'S GULCH ROAD","CITY":"KELLOGG","STATE":"ID","ZIP":"83837","ZIP4":"NOT AVAILABLE","TELEPHONE":"(208) 784-1221","TYPE":"GENERAL ACUTE CARE","STATUS":"OPEN","POPULATION":25,"COUNTY":"SHOSHONE","COUNTYFIPS":"16079","COUNTRY":"USA","LATITUDE":47.546398267000029,"LONGITUDE":-116.13061309599999,"NAICS_CODE":"622110","NAICS_DESC":"GENERAL MEDICAL AND SURGICAL HOSPITALS","SOURCE":"http://healthandwelfare.idaho.gov/portals/0/medical/licensingcertification/alphahospital.pdf","SOURCEDATE":1596844800000,"VAL_METHOD":"IMAGERY","VAL_DATE":1384214400000,"WEBSITE":"http://www.shoshonehealth.com","STATE_ID":"NOT AVAILABLE","ALT_NAME":"NOT AVAILABLE","ST_FIPS":"16","OWNER":"GOVERNMENT - DISTRICT/AUTHORITY","TTL_STAFF":-999,"BEDS":25,"TRAUMA":"NOT AVAILABLE","HELIPAD":"Y"}},{"type":"Feature","id":44,"geometry":{"type":"Point","coordinates":[-116.5675792211231,47.314659521864705]},"properties":{"OBJECTID":44,"ID":"0001283861","NAME":"BENEWAH COMMUNITY HOSPITAL","ADDRESS":"229 SOUTH SEVENTH STREET","CITY":"ST. MARIES","STATE":"ID","ZIP":"83861","ZIP4":"NOT AVAILABLE","TELEPHONE":"(208) 245-5551","TYPE":"GENERAL ACUTE CARE","STATUS":"OPEN","POPULATION":19,"COUNTY":"BENEWAH","COUNTYFIPS":"16009","COUNTRY":"USA","LATITUDE":47.314659522000056,"LONGITUDE":-116.56757922099996,"NAICS_CODE":"622110","NAICS_DESC":"GENERAL MEDICAL AND SURGICAL HOSPITALS","SOURCE":"http://healthandwelfare.idaho.gov/portals/0/medical/licensingcertification/alphahospital.pdf","SOURCEDATE":1596844800000,"VAL_METHOD":"IMAGERY","VAL_DATE":1394582400000,"WEBSITE":"http://www.bchmed.org","STATE_ID":"NOT AVAILABLE","ALT_NAME":"NOT AVAILABLE","ST_FIPS":"16","OWNER":"GOVERNMENT - LOCAL","TTL_STAFF":-999,"BEDS":19,"TRAUMA":"NOT AVAILABLE","HELIPAD":"Y"}},{"type":"Feature","id":45,"geometry":{"type":"Point","coordinates":[-116.12721659144641,45.92706835815445]},"properties":{"OBJECTID":45,"ID":"0001983530","NAME":"SYRINGA GENERAL HOSPITAL","ADDRESS":"607 WEST MAIN","CITY":"GRANGEVILLE","STATE":"ID","ZIP":"83530","ZIP4":"NOT AVAILABLE","TELEPHONE":"(208) 983-1700","TYPE":"GENERAL ACUTE CARE","STATUS":"OPEN","POPULATION":16,"COUNTY":"IDAHO","COUNTYFIPS":"16049","COUNTRY":"USA","LATITUDE":45.927068358000042,"LONGITUDE":-116.12721659099998,"NAICS_CODE":"622110","NAICS_DESC":"GENERAL MEDICAL AND SURGICAL HOSPITALS","SOURCE":"http://healthandwelfare.idaho.gov/portals/0/medical/licensingcertification/alphahospital.pdf","SOURCEDATE":1596844800000,"VAL_METHOD":"IMAGERY","VAL_DATE":1384214400000,"WEBSITE":"http://www.syringahospital.org","STATE_ID":"NOT AVAILABLE","ALT_NAME":"NOT AVAILABLE","ST_FIPS":"16","OWNER":"GOVERNMENT - DISTRICT/AUTHORITY","TTL_STAFF":-999,"BEDS":16,"TRAUMA":"NOT AVAILABLE","HELIPAD":"N"}},{"type":"Feature","id":46,"geometry":{"type":"Point","coordinates":[-116.54940678262575,48.277595792959133]},"properties":{"OBJECTID":46,"ID":"0000183864","NAME":"BONNER GENERAL HOSPITAL","ADDRESS":"520 NORTH THIRD AVENUE","CITY":"SANDPOINT","STATE":"ID","ZIP":"83864","ZIP4":"NOT AVAILABLE","TELEPHONE":"(208) 263-1441","TYPE":"GENERAL ACUTE CARE","STATUS":"OPEN","POPULATION":25,"COUNTY":"BONNER","COUNTYFIPS":"16017","COUNTRY":"USA","LATITUDE":48.277595793000046,"LONGITUDE":-116.54940678299994,"NAICS_CODE":"622110","NAICS_DESC":"GENERAL MEDICAL AND SURGICAL HOSPITALS","SOURCE":"http://healthandwelfare.idaho.gov/portals/0/medical/licensingcertification/alphahospital.pdf","SOURCEDATE":1596844800000,"VAL_METHOD":"IMAGERY","VAL_DATE":1391990400000,"WEBSITE":"http://www.bonnergeneral.org/index.php","STATE_ID":"NOT AVAILABLE","ALT_NAME":"NOT AVAILABLE","ST_FIPS":"16","OWNER":"NON-PROFIT","TTL_STAFF":-999,"BEDS":25,"TRAUMA":"NOT AVAILABLE","HELIPAD":"Y"}},{"type":"Feature","id":47,"geometry":{"type":"Point","coordinates":[-116.11013930258659,44.9090481289129]},"properties":{"OBJECTID":47,"ID":"0003783638","NAME":"ST. LUKE'S MCCALL","ADDRESS":"1000 STATE STREET","CITY":"MCCALL","STATE":"ID","ZIP":"83638","ZIP4":"NOT AVAILABLE","TELEPHONE":"(208) 634-2221","TYPE":"GENERAL ACUTE CARE","STATUS":"OPEN","POPULATION":15,"COUNTY":"VALLEY","COUNTYFIPS":"16085","COUNTRY":"USA","LATITUDE":44.909048129000041,"LONGITUDE":-116.11013930299998,"NAICS_CODE":"622110","NAICS_DESC":"GENERAL MEDICAL AND SURGICAL HOSPITALS","SOURCE":"http://healthandwelfare.idaho.gov/portals/0/medical/licensingcertification/alphahospital.pdf","SOURCEDATE":1596844800000,"VAL_METHOD":"IMAGERY","VAL_DATE":1394582400000,"WEBSITE":"http://www.mccallhosp.org","STATE_ID":"NOT AVAILABLE","ALT_NAME":"NOT AVAILABLE","ST_FIPS":"16","OWNER":"NON-PROFIT","TTL_STAFF":-999,"BEDS":15,"TRAUMA":"NOT AVAILABLE","HELIPAD":"N"}},{"type":"Feature","id":48,"geometry":{"type":"Point","coordinates":[-116.04937908304369,44.518369877135534]},"properties":{"OBJECTID":48,"ID":"0004383611","NAME":"CASCADE MEDICAL CENTER","ADDRESS":"402 LAKE CASCADE PARKWAY","CITY":"CASCADE","STATE":"ID","ZIP":"83611","ZIP4":"NOT AVAILABLE","TELEPHONE":"(208) 382-4242","TYPE":"GENERAL ACUTE CARE","STATUS":"OPEN","POPULATION":10,"COUNTY":"VALLEY","COUNTYFIPS":"16085","COUNTRY":"USA","LATITUDE":44.518369877000055,"LONGITUDE":-116.04937908299996,"NAICS_CODE":"622110","NAICS_DESC":"GENERAL MEDICAL AND SURGICAL HOSPITALS","SOURCE":"http://healthandwelfare.idaho.gov/portals/0/medical/licensingcertification/alphahospital.pdf","SOURCEDATE":1596844800000,"VAL_METHOD":"IMAGERY/OTHER","VAL_DATE":1394582400000,"WEBSITE":"http://www.cascademedicalcenter.net","STATE_ID":"NOT AVAILABLE","ALT_NAME":"NOT AVAILABLE","ST_FIPS":"16","OWNER":"GOVERNMENT - DISTRICT/AUTHORITY","TTL_STAFF":-999,"BEDS":10,"TRAUMA":"NOT AVAILABLE","HELIPAD":"Y"}},{"type":"Feature","id":49,"geometry":{"type":"Point","coordinates":[-113.89174697398168,45.173289673997672]},"properties":{"OBJECTID":49,"ID":"0003883467","NAME":"STEELE MEMORIAL MEDICAL CENTER","ADDRESS":"203 S. DAISY","CITY":"SALMON","STATE":"ID","ZIP":"83467","ZIP4":"NOT AVAILABLE","TELEPHONE":"(208) 756-5600","TYPE":"CRITICAL ACCESS","STATUS":"OPEN","POPULATION":18,"COUNTY":"LEMHI","COUNTYFIPS":"16059","COUNTRY":"USA","LATITUDE":45.173289674000046,"LONGITUDE":-113.89174697399994,"NAICS_CODE":"622110","NAICS_DESC":"GENERAL MEDICAL AND SURGICAL HOSPITALS","SOURCE":"http://healthandwelfare.idaho.gov/portals/0/medical/licensingcertification/alphahospital.pdf","SOURCEDATE":1596844800000,"VAL_METHOD":"IMAGERY","VAL_DATE":1394582400000,"WEBSITE":"www.steelemh.com","STATE_ID":"NOT AVAILABLE","ALT_NAME":"NOT AVAILABLE","ST_FIPS":"16","OWNER":"GOVERNMENT - LOCAL","TTL_STAFF":-999,"BEDS":18,"TRAUMA":"NOT AVAILABLE","HELIPAD":"Y"}},{"type":"Feature","id":50,"geometry":{"type":"Point","coordinates":[-116.35260829168864,43.599696516172557]},"properties":{"OBJECTID":50,"ID":"0155583642","NAME":"ST. LUKE'S MERIDIAN MEDICAL CENTER","ADDRESS":"520 S. EAGLE ROAD","CITY":"MERIDIAN","STATE":"ID","ZIP":"83642","ZIP4":"NOT AVAILABLE","TELEPHONE":"(208) 706-5000","TYPE":"SPECIAL","STATUS":"OPEN","POPULATION":-999,"COUNTY":"ADA","COUNTYFIPS":"16001","COUNTRY":"USA","LATITUDE":43.599696516000051,"LONGITUDE":-116.35260829199996,"NAICS_CODE":"622110","NAICS_DESC":"GENERAL MEDICAL AND SURGICAL HOSPITALS","SOURCE":"http://healthandwelfare.idaho.gov/portals/0/medical/licensingcertification/alphahospital.pdf","SOURCEDATE":1596844800000,"VAL_METHOD":"IMAGERY/OTHER","VAL_DATE":1427673600000,"WEBSITE":"NOT AVAILABLE","STATE_ID":"NOT AVAILABLE","ALT_NAME":"NOT AVAILABLE","ST_FIPS":"16","OWNER":"NON-PROFIT","TTL_STAFF":-999,"BEDS":-999,"TRAUMA":"NOT AVAILABLE","HELIPAD":"Y"}},{"type":"Feature","id":51,"geometry":{"type":"Point","coordinates":[-116.19244918592067,43.612565384050924]},"properties":{"OBJECTID":51,"ID":"0155483712","NAME":"ST. LUKE'S REGIONAL MEDICAL CENTER","ADDRESS":"190 EAST BANNOCK STREET","CITY":"BOISE","STATE":"ID","ZIP":"83712","ZIP4":"NOT AVAILABLE","TELEPHONE":"(208) 381-2222","TYPE":"GENERAL ACUTE CARE","STATUS":"OPEN","POPULATION":604,"COUNTY":"ADA","COUNTYFIPS":"16001","COUNTRY":"USA","LATITUDE":43.61256538400005,"LONGITUDE":-116.19244918599998,"NAICS_CODE":"622110","NAICS_DESC":"GENERAL MEDICAL AND SURGICAL HOSPITALS","SOURCE":"http://healthandwelfare.idaho.gov/portals/0/medical/licensingcertification/alphahospital.pdf","SOURCEDATE":1596844800000,"VAL_METHOD":"IMAGERY/OTHER","VAL_DATE":1427673600000,"WEBSITE":"NOT AVAILABLE","STATE_ID":"NOT AVAILABLE","ALT_NAME":"NOT AVAILABLE","ST_FIPS":"16","OWNER":"NON-PROFIT","TTL_STAFF":-999,"BEDS":604,"TRAUMA":"NOT AVAILABLE","HELIPAD":"Y"}},{"type":"Feature","id":52,"geometry":{"type":"Point","coordinates":[-116.28246281990863,43.627181320675412]},"properties":{"OBJECTID":52,"ID":"0005683704","NAME":"LIFEWAYS HOSPITAL","ADDRESS":"8050 NORTHVIEW STREET","CITY":"BOISE","STATE":"ID","ZIP":"83704","ZIP4":"NOT AVAILABLE","TELEPHONE":"(208) 327-0504","TYPE":"PSYCHIATRIC","STATUS":"OPEN","POPULATION":16,"COUNTY":"ADA","COUNTYFIPS":"16001","COUNTRY":"USA","LATITUDE":43.62718132100008,"LONGITUDE":-116.28246281999998,"NAICS_CODE":"622210","NAICS_DESC":"PSYCHIATRIC AND SUBSTANCE ABUSE HOSPITALS","SOURCE":"http://healthandwelfare.idaho.gov/portals/0/medical/licensingcertification/alphahospital.pdf","SOURCEDATE":1596844800000,"VAL_METHOD":"IMAGERY","VAL_DATE":1461283200000,"WEBSITE":"http://www.safehavenhealthcare.org/","STATE_ID":"NOT AVAILABLE","ALT_NAME":"NOT AVAILABLE","ST_FIPS":"16","OWNER":"PROPRIETARY","TTL_STAFF":-999,"BEDS":16,"TRAUMA":"NOT AVAILABLE","HELIPAD":"N"}},{"type":"Feature","id":53,"geometry":{"type":"Point","coordinates":[-116.35894920014027,43.586328900275561]},"properties":{"OBJECTID":53,"ID":"0196784209","NAME":"COTTONWOOD CREEK BEHAVIORAL HOSPITAL","ADDRESS":"2131 S BONITO WAY","CITY":"MERIDIAN","STATE":"ID","ZIP":"83624","ZIP4":"NOT AVAILABLE","TELEPHONE":"(801) 884-3809","TYPE":"PSYCHIATRIC","STATUS":"OPEN","POPULATION":78,"COUNTY":"ADA","COUNTYFIPS":"16001","COUNTRY":"USA","LATITUDE":43.586328900000069,"LONGITUDE":-116.35894919999998,"NAICS_CODE":"622210","NAICS_DESC":"PSYCHIATRIC AND SUBSTANCE ABUSE HOSPITALS","SOURCE":"http://healthandwelfare.idaho.gov/Portals/0/Medical/LicensingCertification/AlphaHospital.pdf","SOURCEDATE":1597622400000,"VAL_METHOD":"IMAGERY/OTHER","VAL_DATE":1620259200000,"WEBSITE":"NOT AVAILABLE","STATE_ID":"NOT AVAILABLE","ALT_NAME":"NOT AVAILABLE","ST_FIPS":"16","OWNER":"NOT AVAILABLE","TTL_STAFF":-999,"BEDS":78,"TRAUMA":"NOT AVAILABLE","HELIPAD":"NOT AVAILABLE"}},{"type":"Feature","id":54,"geometry":{"type":"Point","coordinates":[-111.98776820000757,43.472574799814559]},"properties":{"OBJECTID":54,"ID":"0196784218","NAME":"IDAHO FALLS COMMUNITY HOSPITAL","ADDRESS":"2327 CORONADO ST","CITY":"IDAHO FALLS","STATE":"ID","ZIP":"83406","ZIP4":"NOT AVAILABLE","TELEPHONE":"(208) 557-2711","TYPE":"GENERAL ACUTE CARE","STATUS":"OPEN","POPULATION":88,"COUNTY":"BONNEVILLE","COUNTYFIPS":"16019","COUNTRY":"USA","LATITUDE":43.472574800000075,"LONGITUDE":-111.98776819999995,"NAICS_CODE":"622110","NAICS_DESC":"GENERAL MEDICAL AND SURGICAL HOSPITALS","SOURCE":"http://healthandwelfare.idaho.gov/Portals/0/Medical/LicensingCertification/AlphaHospital.pdf","SOURCEDATE":1597622400000,"VAL_METHOD":"GEOCODE","VAL_DATE":1604275200000,"WEBSITE":"NOT AVAILABLE","STATE_ID":"NOT AVAILABLE","ALT_NAME":"NOT AVAILABLE","ST_FIPS":"16","OWNER":"NOT AVAILABLE","TTL_STAFF":-999,"BEDS":88,"TRAUMA":"NOT AVAILABLE","HELIPAD":"NOT AVAILABLE"}},{"type":"Feature","id":55,"geometry":{"type":"Point","coordinates":[-116.51739199999773,43.597448900113697]},"properties":{"OBJECTID":55,"ID":"0196784248","NAME":"SAINT ALPHONSUS MEDICAL CENTER - NAMPA","ADDRESS":"4300 E FLAMINGO AVE","CITY":"NAMPA","STATE":"ID","ZIP":"83687","ZIP4":"NOT AVAILABLE","TELEPHONE":"(208) 205-0050","TYPE":"GENERAL ACUTE CARE","STATUS":"OPEN","POPULATION":106,"COUNTY":"CANYON","COUNTYFIPS":"16027","COUNTRY":"USA","LATITUDE":43.597448900000074,"LONGITUDE":-116.51739199999997,"NAICS_CODE":"622110","NAICS_DESC":"GENERAL MEDICAL AND SURGICAL HOSPITALS","SOURCE":"http://healthandwelfare.idaho.gov/Portals/0/Medical/LicensingCertification/AlphaHospital.pdf","SOURCEDATE":1597622400000,"VAL_METHOD":"GEOCODE","VAL_DATE":1604275200000,"WEBSITE":"NOT AVAILABLE","STATE_ID":"NOT AVAILABLE","ALT_NAME":"NOT AVAILABLE","ST_FIPS":"16","OWNER":"NOT AVAILABLE","TTL_STAFF":-999,"BEDS":106,"TRAUMA":"NOT AVAILABLE","HELIPAD":"NOT AVAILABLE"}},{"type":"Feature","id":56,"geometry":{"type":"Point","coordinates":[-116.2644651001408,43.60340739991986]},"properties":{"OBJECTID":56,"ID":"0196784273","NAME":"VIBRA HOSPITAL OF BOISE","ADDRESS":"6651 W FRANKLIN RD","CITY":"BOISE","STATE":"ID","ZIP":"83709","ZIP4":"NOT AVAILABLE","TELEPHONE":"(208) 489-9500","TYPE":"LONG TERM CARE","STATUS":"OPEN","POPULATION":40,"COUNTY":"ADA","COUNTYFIPS":"16001","COUNTRY":"USA","LATITUDE":43.603407400000037,"LONGITUDE":-116.26446509999994,"NAICS_CODE":"622310","NAICS_DESC":"EXTENDED CARE HOSPITALS (EXCEPT MENTAL, SUBSTANCE ABUSE)","SOURCE":"http://healthandwelfare.idaho.gov/Portals/0/Medical/LicensingCertification/AlphaHospital.pdf","SOURCEDATE":1597622400000,"VAL_METHOD":"IMAGERY","VAL_DATE":1619395200000,"WEBSITE":"NOT AVAILABLE","STATE_ID":"NOT AVAILABLE","ALT_NAME":"NOT AVAILABLE","ST_FIPS":"16","OWNER":"NOT AVAILABLE","TTL_STAFF":-999,"BEDS":40,"TRAUMA":"NOT AVAILABLE","HELIPAD":"NOT AVAILABLE"}},{"type":"Feature","id":57,"geometry":{"type":"Point","coordinates":[-116.25618199990895,43.610805000017223]},"properties":{"OBJECTID":57,"ID":"0196784276","NAME":"SAINT ALPHONSUS REGIONAL REHABILITATION HOSPITAL","ADDRESS":"711 N CURTIS RD","CITY":"BOISE","STATE":"ID","ZIP":"83706","ZIP4":"NOT AVAILABLE","TELEPHONE":"(208) 605-3000","TYPE":"REHABILITATION","STATUS":"OPEN","POPULATION":40,"COUNTY":"ADA","COUNTYFIPS":"16001","COUNTRY":"USA","LATITUDE":43.610805000000028,"LONGITUDE":-116.25618199999997,"NAICS_CODE":"622310","NAICS_DESC":"REHABILITATION HOSPITALS (EXCEPT ALCOHOLISM, DRUG ADDICTION)","SOURCE":"http://healthandwelfare.idaho.gov/Portals/0/Medical/LicensingCertification/AlphaHospital.pdf","SOURCEDATE":1597622400000,"VAL_METHOD":"GEOCODE","VAL_DATE":1604275200000,"WEBSITE":"NOT AVAILABLE","STATE_ID":"NOT AVAILABLE","ALT_NAME":"NOT AVAILABLE","ST_FIPS":"16","OWNER":"NOT AVAILABLE","TTL_STAFF":-999,"BEDS":40,"TRAUMA":"NOT AVAILABLE","HELIPAD":"NOT AVAILABLE"}},{"type":"Feature","id":58,"geometry":{"type":"Point","coordinates":[-116.59030869986907,43.617390699947485]},"properties":{"OBJECTID":58,"ID":"0196784291","NAME":"ST LUKE'S NAMPA MEDICAL CENTER","ADDRESS":"9850 W ST LUKE'S DR, SUITE 250","CITY":"NAMPA","STATE":"ID","ZIP":"83687","ZIP4":"NOT AVAILABLE","TELEPHONE":"(208) 505-2000","TYPE":"GENERAL ACUTE CARE","STATUS":"OPEN","POPULATION":87,"COUNTY":"CANYON","COUNTYFIPS":"16027","COUNTRY":"USA","LATITUDE":43.617390700000044,"LONGITUDE":-116.59030869999998,"NAICS_CODE":"622110","NAICS_DESC":"GENERAL MEDICAL AND SURGICAL HOSPITALS","SOURCE":"http://healthandwelfare.idaho.gov/Portals/0/Medical/LicensingCertification/AlphaHospital.pdf","SOURCEDATE":1597622400000,"VAL_METHOD":"IMAGERY","VAL_DATE":1619395200000,"WEBSITE":"NOT AVAILABLE","STATE_ID":"NOT AVAILABLE","ALT_NAME":"NOT AVAILABLE","ST_FIPS":"16","OWNER":"NOT AVAILABLE","TTL_STAFF":-999,"BEDS":87,"TRAUMA":"NOT AVAILABLE","HELIPAD":"NOT AVAILABLE"}}]}